{"errorcode": "0", "errormessage": "", "numberofresults": 4, "route": "114", "timestamp": "07/07/2020 16:09:48", "results": [{"operator": "bac", "origin": "Blackrock Station", "originlocalized": "", "destination": "Ticknock", "destinationlocalized": "Tigh an Chnoic", "lastupdated": "27/06/2016 08:48:29", "stops": [{"stopid": "3165", "displaystopid": "3165", "shortname": "Carysfort Avenue", "shortnamelocalized": "Ascaill Dh\u00c3\u00ban Car\u00c3\u00bain", "fullname": "Carysfort Avenue", "fullnamelocalized": "", "latitude": "53.2993461111", "longitude": "-6.1797344444", "operators": [{"name": "bac", "operatortype": 1, "routes": ["114"]}]}, {"stopid": "3166", "displaystopid": "3166", "shortname": "Carysfort Avenue", "shortnamelocalized": "Ascaill Dh\u00c3\u00ban Car\u00c3\u00bain", "fullname": "UCD Smurfit", "fullnamelocalized": "", "latitude": "53.2970116667", "longitude": "-6.1804938889", "operators": [{"name": "bac", "operatortype": 1, "routes": ["114"]}]}, {"stopid": "3167", "displaystopid": "3167", "shortname": "Carysfort Avenue", "shortnamelocalized": "Ascaill Dh\u00c3\u00ban Car\u00c3\u00bain", "fullname": "Brookfield Terrace", "fullnamelocalized": "", "latitude": "53.2949238889", "longitude": "-6.1803277778", "operators": [{"name": "bac", "operatortype": 1, "routes": ["114"]}]}, {"stopid": "3168", "displaystopid": "3168", "shortname": "Carysfort Avenue", "shortnamelocalized": "Ascaill Dh\u00c3\u00ban Car\u00c3\u00bain", "fullname": "Proby Square", "fullnamelocalized": "", "latitude": "53.2922416667", "longitude": "-6.1800816667", "operators": [{"name": "bac", "operatortype": 1, "routes": ["114"]}]}, {"stopid": "3169", "displaystopid": "3169", "shortname": "Carysfort Avenue", "shortnamelocalized": "Ascaill Dh\u00c3\u00ban Car\u00c3\u00bain", "fullname": "St Augustine's Sch", "fullnamelocalized": "", "latitude": "53.2885727778", "longitude": "-6.1805675", "operators": [{"name": "bac", "operatortype": 1, "routes": ["114"]}]}, {"stopid": "3171", "displaystopid": "3171", "shortname": "Newtown Park", "shortnamelocalized": "P\u00c3\u00a1irc an Bhaile Nua", "fullname": "Newtown Park", "fullnamelocalized": "", "latitude": "53.287425", "longitude": "-6.1766263889", "operators": [{"name": "bac", "operatortype": 1, "routes": ["114"]}]}, {"stopid": "3173", "displaystopid": "3173", "shortname": "Newtownpark Ave", "shortnamelocalized": "Asc Ph\u00c3\u00a1irc an Bhail", "fullname": "Meadow Close", "fullnamelocalized": "", "latitude": "53.2847052778", "longitude": "-6.1774472222", "operators": [{"name": "bac", "operatortype": 1, "routes": ["114"]}]}, {"stopid": "3174", "displaystopid": "3174", "shortname": "Newtownpark Ave", "shortnamelocalized": "Asc Ph\u00c3\u00a1irc an Bhail", "fullname": "Granville Park", "fullnamelocalized": "", "latitude": "53.2821483333", "longitude": "-6.1801205556", "operators": [{"name": "bac", "operatortype": 1, "routes": ["114"]}]}, {"stopid": "3175", "displaystopid": "3175", "shortname": "Newtownpark Ave", "shortnamelocalized": "Asc Ph\u00c3\u00a1irc an Bhail", "fullname": "Stillorgan Road", "fullnamelocalized": "", "latitude": "53.2796194444", "longitude": "-6.1834525", "operators": [{"name": "bac", "operatortype": 1, "routes": ["114"]}]}, {"stopid": "3176", "displaystopid": "3176", "shortname": "Leopardstown Rd", "shortnamelocalized": "Br Bhaile na Lobhar", "fullname": "Leopardstown Rd", "fullnamelocalized": "", "latitude": "53.2775747222", "longitude": "-6.1861186111", "operators": [{"name": "bac", "operatortype": 1, "routes": ["114"]}]}, {"stopid": "3177", "displaystopid": "3177", "shortname": "Leopardstown Rd", "shortnamelocalized": "Br Bhaile na Lobhar", "fullname": "Foxrock Manor", "fullnamelocalized": "", "latitude": "53.2760722222", "longitude": "-6.1883863889", "operators": [{"name": "bac", "operatortype": 1, "routes": ["114"]}]}, {"stopid": "5143", "displaystopid": "5143", "shortname": "Blackthorn Drive", "shortnamelocalized": "C\u00c3\u00a9ide an Draighin", "fullname": "Blackthorn Green", "fullnamelocalized": "", "latitude": "53.2756669444", "longitude": "-6.2277963889", "operators": [{"name": "bac", "operatortype": 1, "routes": ["114"]}]}, {"stopid": "2833", "displaystopid": "2833", "shortname": "Sandyford Rd", "shortnamelocalized": "Br \u00c3\u0081th an Ghainimh", "fullname": "Sandyford Rd", "fullnamelocalized": "", "latitude": "53.2743919444", "longitude": "-6.2290936111", "operators": [{"name": "bac", "operatortype": 1, "routes": ["114"]}]}, {"stopid": "3082", "displaystopid": "3082", "shortname": "Carysfort Avenue", "shortnamelocalized": "Ascaill Dh\u00c3\u00ban Car\u00c3\u00bain", "fullname": "Carysfort Avenue", "fullnamelocalized": "", "latitude": "53.3004536111", "longitude": "-6.1780969444", "operators": [{"name": "bac", "operatortype": 1, "routes": ["114"]}]}, {"stopid": "3085", "displaystopid": "3085", "shortname": "Blackrock", "shortnamelocalized": "An Charraig Dhubh", "fullname": "Blackrock Station", "fullnamelocalized": "", "latitude": "53.30248", "longitude": "-6.1783708333", "operators": [{"name": "bac", "operatortype": 1, "routes": ["114"]}]}, {"stopid": "448", "displaystopid": "448", "shortname": "Burton Hall Rd", "shortnamelocalized": "Br Halla an Bhurt\u00c3\u00ban", "fullname": "Burton Hall Rd", "fullnamelocalized": "", "latitude": "53.2748386111", "longitude": "-6.2066725", "operators": [{"name": "bac", "operatortype": 1, "routes": ["114"]}]}, {"stopid": "3178", "displaystopid": "3178", "shortname": "Leopardstown Rd", "shortnamelocalized": "Br Bhaile na Lobhar", "fullname": "Torquay Road", "fullnamelocalized": "", "latitude": "53.2743713889", "longitude": "-6.1929869444", "operators": [{"name": "bac", "operatortype": 1, "routes": ["114"]}]}, {"stopid": "3179", "displaystopid": "3179", "shortname": "Leopardstown Rd", "shortnamelocalized": "Br Bhaile na Lobhar", "fullname": "Racecourse", "fullnamelocalized": "", "latitude": "53.2730038889", "longitude": "-6.1988325", "operators": [{"name": "bac", "operatortype": 1, "routes": ["114"]}]}, {"stopid": "3182", "displaystopid": "3182", "shortname": "Blackthorn Road", "shortnamelocalized": "B\u00c3\u00b3thar an Draighin", "fullname": "Heather Road", "fullnamelocalized": "", "latitude": "53.2752119444", "longitude": "-6.2141694444", "operators": [{"name": "bac", "operatortype": 1, "routes": ["114"]}]}, {"stopid": "3183", "displaystopid": "3183", "shortname": "Blackthorn Road", "shortnamelocalized": "B\u00c3\u00b3thar an Draighin", "fullname": "Bracken Road", "fullnamelocalized": "", "latitude": "53.27619", "longitude": "-6.2170527778", "operators": [{"name": "bac", "operatortype": 1, "routes": ["114"]}]}, {"stopid": "3493", "displaystopid": "3493", "shortname": "Blackglen Rd", "shortnamelocalized": "Br an Ghleanna Dhui", "fullname": "Blackglen Rd", "fullnamelocalized": "", "latitude": "53.2652072222", "longitude": "-6.2297880556", "operators": [{"name": "bac", "operatortype": 1, "routes": ["114"]}]}, {"stopid": "3494", "displaystopid": "3494", "shortname": "Blackglen Rd", "shortnamelocalized": "Br an Ghleanna Dhui", "fullname": "Blackglen Rd", "fullnamelocalized": "", "latitude": "53.2654030556", "longitude": "-6.2345022222", "operators": [{"name": "bac", "operatortype": 1, "routes": ["114"]}]}, {"stopid": "4457", "displaystopid": "4457", "shortname": "Blackthorn Drive", "shortnamelocalized": "C\u00c3\u00a9ide an Draighin", "fullname": "Ravenscourt Park", "fullnamelocalized": "", "latitude": "53.2750555556", "longitude": "-6.2091377778", "operators": [{"name": "bac", "operatortype": 1, "routes": ["114"]}]}, {"stopid": "4984", "displaystopid": "4984", "shortname": "Burton Hall Rd", "shortnamelocalized": "Br Halla an Bhurt\u00c3\u00ban", "fullname": "Burton Hall Rd", "fullnamelocalized": "", "latitude": "53.2736569444", "longitude": "-6.2033933333", "operators": [{"name": "bac", "operatortype": 1, "routes": ["114"]}]}, {"stopid": "6006", "displaystopid": "6006", "shortname": "Sandyford Rd", "shortnamelocalized": "Br \u00c3\u0081th an Ghainimh", "fullname": "Sandyford Rd", "fullnamelocalized": "", "latitude": "53.2698661111", "longitude": "-6.2287708333", "operators": [{"name": "bac", "operatortype": 1, "routes": ["114"]}]}, {"stopid": "6197", "displaystopid": "6197", "shortname": "Ticknock", "shortnamelocalized": "Tigh an Chnoic", "fullname": "Rockview Road", "fullnamelocalized": "", "latitude": "53.2666872222", "longitude": "-6.2417205556", "operators": [{"name": "bac", "operatortype": 1, "routes": ["114"]}]}, {"stopid": "6198", "displaystopid": "6198", "shortname": "Ticknock", "shortnamelocalized": "Tigh an Chnoic", "fullname": "Sandyford View", "fullnamelocalized": "", "latitude": "53.2694758333", "longitude": "-6.2394472222", "operators": [{"name": "bac", "operatortype": 1, "routes": ["114"]}]}, {"stopid": "6199", "displaystopid": "6199", "shortname": "Blackglen", "shortnamelocalized": "An Gleann Dubh", "fullname": "Rockview", "fullnamelocalized": "", "latitude": "53.2691816667", "longitude": "-6.2408236111", "operators": [{"name": "bac", "operatortype": 1, "routes": ["114"]}]}, {"stopid": "4350", "displaystopid": "4350", "shortname": "Blackthorn Drive", "shortnamelocalized": "C\u00c3\u00a9ide an Draighin", "fullname": "Moreen Avenue", "fullnamelocalized": "", "latitude": "53.2761883333", "longitude": "-6.2229761111", "operators": [{"name": "bac", "operatortype": 1, "routes": ["114"]}]}]}, {"operator": "bac", "origin": "Ticknock", "originlocalized": "Tigh an Chnoic", "destination": "Blackrock Station", "destinationlocalized": "", "lastupdated": "27/06/2016 08:48:27", "stops": [{"stopid": "3181", "displaystopid": "3181", "shortname": "Blackthorn Road", "shortnamelocalized": "B\u00c3\u00b3thar an Draighin", "fullname": "Blackthorn Road", "fullnamelocalized": "", "latitude": "53.2767338889", "longitude": "-6.2077777778", "operators": [{"name": "bac", "operatortype": 1, "routes": ["114"]}]}, {"stopid": "3184", "displaystopid": "3184", "shortname": "Blackthorn Drive", "shortnamelocalized": "C\u00c3\u00a9ide an Draighin", "fullname": "Moreen Avenue", "fullnamelocalized": "", "latitude": "53.2761925", "longitude": "-6.2238458333", "operators": [{"name": "bac", "operatortype": 1, "routes": ["114"]}]}, {"stopid": "3187", "displaystopid": "3187", "shortname": "Burton Hall Rd", "shortnamelocalized": "Br Halla an Bhurt\u00c3\u00ban", "fullname": "Burton Hall Road", "fullnamelocalized": "", "latitude": "53.2738266667", "longitude": "-6.2033261111", "operators": [{"name": "bac", "operatortype": 1, "routes": ["114"]}]}, {"stopid": "3188", "displaystopid": "3188", "shortname": "Leopardstown Rd", "shortnamelocalized": "Br Bhaile na Lobhar", "fullname": "Racecourse", "fullnamelocalized": "", "latitude": "53.2731775", "longitude": "-6.19902", "operators": [{"name": "bac", "operatortype": 1, "routes": ["114"]}]}, {"stopid": "3189", "displaystopid": "3189", "shortname": "Leopardstown Rd", "shortnamelocalized": "Br Bhaile na Lobhar", "fullname": "Silverpark GAA", "fullnamelocalized": "", "latitude": "53.2738444444", "longitude": "-6.1955730556", "operators": [{"name": "bac", "operatortype": 1, "routes": ["114"]}]}, {"stopid": "3190", "displaystopid": "3190", "shortname": "Leopardstown Rd", "shortnamelocalized": "Br Bhaile na Lobhar", "fullname": "Torquay Road", "fullnamelocalized": "", "latitude": "53.2748847222", "longitude": "-6.1918555556", "operators": [{"name": "bac", "operatortype": 1, "routes": ["114"]}]}, {"stopid": "3191", "displaystopid": "3191", "shortname": "Leopardstown Rd", "shortnamelocalized": "Br Bhaile na Lobhar", "fullname": "Foxrock Manor", "fullnamelocalized": "", "latitude": "53.2763141667", "longitude": "-6.1883311111", "operators": [{"name": "bac", "operatortype": 1, "routes": ["114"]}]}, {"stopid": "3192", "displaystopid": "3192", "shortname": "Leopardstown Rd", "shortnamelocalized": "Br Bhaile na Lobhar", "fullname": "Kelston Park", "fullnamelocalized": "", "latitude": "53.2774822222", "longitude": "-6.1865272222", "operators": [{"name": "bac", "operatortype": 1, "routes": ["114"]}]}, {"stopid": "3193", "displaystopid": "3193", "shortname": "Newtownpark Ave", "shortnamelocalized": "Asc Ph\u00c3\u00a1irc an Bhail", "fullname": "Newtownpark Avenue", "fullnamelocalized": "", "latitude": "53.2798336111", "longitude": "-6.1833383333", "operators": [{"name": "bac", "operatortype": 1, "routes": ["114"]}]}, {"stopid": "3194", "displaystopid": "3194", "shortname": "Newtownpark Ave", "shortnamelocalized": "Asc Ph\u00c3\u00a1irc an Bhail", "fullname": "Holly Park Avenue", "fullnamelocalized": "", "latitude": "53.2832613889", "longitude": "-6.1788436111", "operators": [{"name": "bac", "operatortype": 1, "routes": ["114"]}]}, {"stopid": "3195", "displaystopid": "3195", "shortname": "Newtownpark Ave", "shortnamelocalized": "Asc Ph\u00c3\u00a1irc an Bhail", "fullname": "Meadow Close", "fullnamelocalized": "", "latitude": "53.2848952778", "longitude": "-6.1775441667", "operators": [{"name": "bac", "operatortype": 1, "routes": ["114"]}]}, {"stopid": "3196", "displaystopid": "3196", "shortname": "Newtown Park", "shortnamelocalized": "P\u00c3\u00a1irc an Bhaile Nua", "fullname": "Newtown Park", "fullnamelocalized": "", "latitude": "53.2873802778", "longitude": "-6.1772283333", "operators": [{"name": "bac", "operatortype": 1, "routes": ["114"]}]}, {"stopid": "449", "displaystopid": "449", "shortname": "Blackthorn Road", "shortnamelocalized": "C\u00c3\u00a9ide an Draighin", "fullname": "Blackthorn Road", "fullnamelocalized": "", "latitude": "53.2763227778", "longitude": "-6.2169275", "operators": [{"name": "bac", "operatortype": 1, "routes": ["114"]}]}, {"stopid": "450", "displaystopid": "450", "shortname": "Blackthorn Road", "shortnamelocalized": "B\u00c3\u00b3thar an Draighin", "fullname": "Blackthorn Road", "fullnamelocalized": "", "latitude": "53.2750941667", "longitude": "-6.2134997222", "operators": [{"name": "bac", "operatortype": 1, "routes": ["114"]}]}, {"stopid": "3085", "displaystopid": "3085", "shortname": "Blackrock", "shortnamelocalized": "An Charraig Dhubh", "fullname": "Blackrock Station", "fullnamelocalized": "", "latitude": "53.30248", "longitude": "-6.1783708333", "operators": [{"name": "bac", "operatortype": 1, "routes": ["114"]}]}, {"stopid": "3491", "displaystopid": "3491", "shortname": "Sandyford Rd", "shortnamelocalized": "Br \u00c3\u0081th an Ghainimh", "fullname": "Sandyford Rd", "fullnamelocalized": "", "latitude": "53.2655319444", "longitude": "-6.229265", "operators": [{"name": "bac", "operatortype": 1, "routes": ["114"]}]}, {"stopid": "4349", "displaystopid": "4349", "shortname": "Blackthorn Drive", "shortnamelocalized": "C\u00c3\u00a9ide an Draighin", "fullname": "Blackthorn Drive", "fullnamelocalized": "", "latitude": "53.2758455556", "longitude": "-6.2277138889", "operators": [{"name": "bac", "operatortype": 1, "routes": ["114"]}]}, {"stopid": "5142", "displaystopid": "5142", "shortname": "Blackthorn Avenue", "shortnamelocalized": "Ascaill an Draighin", "fullname": "Blackthorn Avenue", "fullnamelocalized": "", "latitude": "53.2776744444", "longitude": "-6.2051741667", "operators": [{"name": "bac", "operatortype": 1, "routes": ["114"]}]}, {"stopid": "6007", "displaystopid": "6007", "shortname": "Sandyford Rd", "shortnamelocalized": "Br \u00c3\u0081th an Ghainimh", "fullname": "Sandyford Rd", "fullnamelocalized": "", "latitude": "53.2697616667", "longitude": "-6.229", "operators": [{"name": "bac", "operatortype": 1, "routes": ["114"]}]}, {"stopid": "6200", "displaystopid": "6200", "shortname": "Blackglen", "shortnamelocalized": "An Gleann Dubh", "fullname": "Rockview", "fullnamelocalized": "", "latitude": "53.2693041667", "longitude": "-6.2406086111", "operators": [{"name": "bac", "operatortype": 1, "routes": ["114"]}]}, {"stopid": "6201", "displaystopid": "6201", "shortname": "Ticknock", "shortnamelocalized": "Tigh an Chnoic", "fullname": "Sandyford View", "fullnamelocalized": "", "latitude": "53.2695722222", "longitude": "-6.2392783333", "operators": [{"name": "bac", "operatortype": 1, "routes": ["114"]}]}, {"stopid": "3198", "displaystopid": "3198", "shortname": "Carysfort Avenue", "shortnamelocalized": "Ascaill Dh\u00c3\u00ban Car\u00c3\u00bain", "fullname": "Carysfort Avenue", "fullnamelocalized": "", "latitude": "53.2898855556", "longitude": "-6.1806019444", "operators": [{"name": "bac", "operatortype": 1, "routes": ["114"]}]}, {"stopid": "3199", "displaystopid": "3199", "shortname": "Carysfort Avenue", "shortnamelocalized": "Ascaill Dh\u00c3\u00ban Car\u00c3\u00bain", "fullname": "Proby Square", "fullnamelocalized": "", "latitude": "53.2925844444", "longitude": "-6.1801719444", "operators": [{"name": "bac", "operatortype": 1, "routes": ["114"]}]}, {"stopid": "3200", "displaystopid": "3200", "shortname": "Carysfort Avenue", "shortnamelocalized": "Ascaill Dh\u00c3\u00ban Car\u00c3\u00bain", "fullname": "UCD Smurfit", "fullnamelocalized": "", "latitude": "53.2966727778", "longitude": "-6.1806583333", "operators": [{"name": "bac", "operatortype": 1, "routes": ["114"]}]}, {"stopid": "3201", "displaystopid": "3201", "shortname": "Carysfort Avenue", "shortnamelocalized": "Ascaill Dh\u00c3\u00ban Car\u00c3\u00bain", "fullname": "Frascati Road", "fullnamelocalized": "", "latitude": "53.2995347222", "longitude": "-6.1797263889", "operators": [{"name": "bac", "operatortype": 1, "routes": ["114"]}]}, {"stopid": "3532", "displaystopid": "3532", "shortname": "Blackglen Rd", "shortnamelocalized": "Br an Ghleanna Dhui", "fullname": "Blackglen Rd", "fullnamelocalized": "", "latitude": "53.2647947222", "longitude": "-6.2401641667", "operators": [{"name": "bac", "operatortype": 1, "routes": ["114"]}]}, {"stopid": "3533", "displaystopid": "3533", "shortname": "Blackglen Rd", "shortnamelocalized": "Br an Ghleanna Dhui", "fullname": "Blackglen Rd", "fullnamelocalized": "", "latitude": "53.2654719444", "longitude": "-6.2343044444", "operators": [{"name": "bac", "operatortype": 1, "routes": ["114"]}]}, {"stopid": "6196", "displaystopid": "6196", "shortname": "Ticknock Hill", "shortnamelocalized": "Cnoc Thigh an Chnoi", "fullname": "Rockview Road", "fullnamelocalized": "", "latitude": "53.2667311111", "longitude": "-6.2416588889", "operators": [{"name": "bac", "operatortype": 1, "routes": ["114"]}]}]}, {"operator": "GAD", "origin": "Blackglen", "originlocalized": "Blackglen", "destination": "Blackrock", "destinationlocalized": "An Charraig Dhubh ", "lastupdated": "29/06/2020 11:32:44", "stops": [{"stopid": "6200", "displaystopid": "6200", "shortname": "Blackglen", "shortnamelocalized": "An Gleann Dubh", "fullname": "Rockview", "fullnamelocalized": "", "latitude": "53.2693041667", "longitude": "-6.2406086111", "operators": [{"name": "GAD", "operatortype": 1, "routes": ["114"]}]}, {"stopid": "6201", "displaystopid": "6201", "shortname": "Ticknock", "shortnamelocalized": "Tigh an Chnoic", "fullname": "Sandyford View", "fullnamelocalized": "", "latitude": "53.2695722222", "longitude": "-6.2392783333", "operators": [{"name": "GAD", "operatortype": 1, "routes": ["114"]}]}, {"stopid": "6196", "displaystopid": "6196", "shortname": "Ticknock Hill", "shortnamelocalized": "Cnoc Thigh an Chnoi", "fullname": "Rockview Road", "fullnamelocalized": "", "latitude": "53.2667311111", "longitude": "-6.2416588889", "operators": [{"name": "GAD", "operatortype": 1, "routes": ["114"]}]}, {"stopid": "3532", "displaystopid": "3532", "shortname": "Blackglen Rd", "shortnamelocalized": "Br an Ghleanna Dhui", "fullname": "Blackglen Rd", "fullnamelocalized": "", "latitude": "53.2647947222", "longitude": "-6.2401641667", "operators": [{"name": "GAD", "operatortype": 1, "routes": ["114"]}]}, {"stopid": "3533", "displaystopid": "3533", "shortname": "Blackglen Rd", "shortnamelocalized": "Br an Ghleanna Dhui", "fullname": "Blackglen Rd", "fullnamelocalized": "", "latitude": "53.2654719444", "longitude": "-6.2343044444", "operators": [{"name": "GAD", "operatortype": 1, "routes": ["114"]}]}, {"stopid": "3491", "displaystopid": "3491", "shortname": "Sandyford Rd", "shortnamelocalized": "Br \u00c3\u0081th an Ghainimh", "fullname": "Sandyford Rd", "fullnamelocalized": "", "latitude": "53.2655319444", "longitude": "-6.229265", "operators": [{"name": "GAD", "operatortype": 1, "routes": ["114"]}]}, {"stopid": "6007", "displaystopid": "6007", "shortname": "Sandyford Rd", "shortnamelocalized": "Br \u00c3\u0081th an Ghainimh", "fullname": "Sandyford Rd", "fullnamelocalized": "", "latitude": "53.2697616667", "longitude": "-6.229", "operators": [{"name": "GAD", "operatortype": 1, "routes": ["114"]}]}, {"stopid": "4349", "displaystopid": "4349", "shortname": "Blackthorn Drive", "shortnamelocalized": "C\u00c3\u00a9ide an Draighin", "fullname": "Blackthorn Drive", "fullnamelocalized": "", "latitude": "53.2758455556", "longitude": "-6.2277138889", "operators": [{"name": "GAD", "operatortype": 1, "routes": ["114"]}]}, {"stopid": "3184", "displaystopid": "3184", "shortname": "Blackthorn Drive", "shortnamelocalized": "C\u00c3\u00a9ide an Draighin", "fullname": "Moreen Avenue", "fullnamelocalized": "", "latitude": "53.2761925", "longitude": "-6.2238458333", "operators": [{"name": "GAD", "operatortype": 1, "routes": ["114"]}]}, {"stopid": "449", "displaystopid": "449", "shortname": "Blackthorn Road", "shortnamelocalized": "C\u00c3\u00a9ide an Draighin", "fullname": "Blackthorn Road", "fullnamelocalized": "", "latitude": "53.2763227778", "longitude": "-6.2169275", "operators": [{"name": "GAD", "operatortype": 1, "routes": ["114"]}]}, {"stopid": "450", "displaystopid": "450", "shortname": "Blackthorn Road", "shortnamelocalized": "B\u00c3\u00b3thar an Draighin", "fullname": "Blackthorn Road", "fullnamelocalized": "", "latitude": "53.2750941667", "longitude": "-6.2134997222", "operators": [{"name": "GAD", "operatortype": 1, "routes": ["114"]}]}, {"stopid": "3181", "displaystopid": "3181", "shortname": "Blackthorn Road", "shortnamelocalized": "B\u00c3\u00b3thar an Draighin", "fullname": "Blackthorn Road", "fullnamelocalized": "", "latitude": "53.2767338889", "longitude": "-6.2077777778", "operators": [{"name": "GAD", "operatortype": 1, "routes": ["114"]}]}, {"stopid": "5142", "displaystopid": "5142", "shortname": "Blackthorn Avenue", "shortnamelocalized": "Ascaill an Draighin", "fullname": "Blackthorn Avenue", "fullnamelocalized": "", "latitude": "53.2776744444", "longitude": "-6.2051741667", "operators": [{"name": "GAD", "operatortype": 1, "routes": ["114"]}]}, {"stopid": "3187", "displaystopid": "3187", "shortname": "Burton Hall Rd", "shortnamelocalized": "Br Halla an Bhurt\u00c3\u00ban", "fullname": "Burton Hall Road", "fullnamelocalized": "", "latitude": "53.2738266667", "longitude": "-6.2033261111", "operators": [{"name": "GAD", "operatortype": 1, "routes": ["114"]}]}, {"stopid": "3188", "displaystopid": "3188", "shortname": "Leopardstown Rd", "shortnamelocalized": "Br Bhaile na Lobhar", "fullname": "Racecourse", "fullnamelocalized": "", "latitude": "53.2731775", "longitude": "-6.19902", "operators": [{"name": "GAD", "operatortype": 1, "routes": ["114"]}]}, {"stopid": "3189", "displaystopid": "3189", "shortname": "Leopardstown Rd", "shortnamelocalized": "Br Bhaile na Lobhar", "fullname": "Silverpark GAA", "fullnamelocalized": "", "latitude": "53.2738444444", "longitude": "-6.1955730556", "operators": [{"name": "GAD", "operatortype": 1, "routes": ["114"]}]}, {"stopid": "3190", "displaystopid": "3190", "shortname": "Leopardstown Rd", "shortnamelocalized": "Br Bhaile na Lobhar", "fullname": "Torquay Road", "fullnamelocalized": "", "latitude": "53.2748847222", "longitude": "-6.1918555556", "operators": [{"name": "GAD", "operatortype": 1, "routes": ["114"]}]}, {"stopid": "3191", "displaystopid": "3191", "shortname": "Leopardstown Rd", "shortnamelocalized": "Br Bhaile na Lobhar", "fullname": "Foxrock Manor", "fullnamelocalized": "", "latitude": "53.2763141667", "longitude": "-6.1883311111", "operators": [{"name": "GAD", "operatortype": 1, "routes": ["114"]}]}, {"stopid": "3192", "displaystopid": "3192", "shortname": "Leopardstown Rd", "shortnamelocalized": "Br Bhaile na Lobhar", "fullname": "Kelston Park", "fullnamelocalized": "", "latitude": "53.2774822222", "longitude": "-6.1865272222", "operators": [{"name": "GAD", "operatortype": 1, "routes": ["114"]}]}, {"stopid": "3193", "displaystopid": "3193", "shortname": "Newtownpark Ave", "shortnamelocalized": "Asc Ph\u00c3\u00a1irc an Bhail", "fullname": "Newtownpark Avenue", "fullnamelocalized": "", "latitude": "53.2798336111", "longitude": "-6.1833383333", "operators": [{"name": "GAD", "operatortype": 1, "routes": ["114"]}]}, {"stopid": "3194", "displaystopid": "3194", "shortname": "Newtownpark Ave", "shortnamelocalized": "Asc Ph\u00c3\u00a1irc an Bhail", "fullname": "Holly Park Avenue", "fullnamelocalized": "", "latitude": "53.2832613889", "longitude": "-6.1788436111", "operators": [{"name": "GAD", "operatortype": 1, "routes": ["114"]}]}, {"stopid": "3195", "displaystopid": "3195", "shortname": "Newtownpark Ave", "shortnamelocalized": "Asc Ph\u00c3\u00a1irc an Bhail", "fullname": "Meadow Close", "fullnamelocalized": "", "latitude": "53.2848952778", "longitude": "-6.1775441667", "operators": [{"name": "GAD", "operatortype": 1, "routes": ["114"]}]}, {"stopid": "3196", "displaystopid": "3196", "shortname": "Newtown Park", "shortnamelocalized": "P\u00c3\u00a1irc an Bhaile Nua", "fullname": "Newtown Park", "fullnamelocalized": "", "latitude": "53.2873802778", "longitude": "-6.1772283333", "operators": [{"name": "GAD", "operatortype": 1, "routes": ["114"]}]}, {"stopid": "3198", "displaystopid": "3198", "shortname": "Carysfort Avenue", "shortnamelocalized": "Ascaill Dh\u00c3\u00ban Car\u00c3\u00bain", "fullname": "Carysfort Avenue", "fullnamelocalized": "", "latitude": "53.2898855556", "longitude": "-6.1806019444", "operators": [{"name": "GAD", "operatortype": 1, "routes": ["114"]}]}, {"stopid": "3199", "displaystopid": "3199", "shortname": "Carysfort Avenue", "shortnamelocalized": "Ascaill Dh\u00c3\u00ban Car\u00c3\u00bain", "fullname": "Proby Square", "fullnamelocalized": "", "latitude": "53.2925844444", "longitude": "-6.1801719444", "operators": [{"name": "GAD", "operatortype": 1, "routes": ["114"]}]}, {"stopid": "3200", "displaystopid": "3200", "shortname": "Carysfort Avenue", "shortnamelocalized": "Ascaill Dh\u00c3\u00ban Car\u00c3\u00bain", "fullname": "UCD Smurfit", "fullnamelocalized": "", "latitude": "53.2966727778", "longitude": "-6.1806583333", "operators": [{"name": "GAD", "operatortype": 1, "routes": ["114"]}]}, {"stopid": "3201", "displaystopid": "3201", "shortname": "Carysfort Avenue", "shortnamelocalized": "Ascaill Dh\u00c3\u00ban Car\u00c3\u00bain", "fullname": "Frascati Road", "fullnamelocalized": "", "latitude": "53.2995347222", "longitude": "-6.1797263889", "operators": [{"name": "GAD", "operatortype": 1, "routes": ["114"]}]}, {"stopid": "3085", "displaystopid": "3085", "shortname": "Blackrock", "shortnamelocalized": "An Charraig Dhubh", "fullname": "Blackrock Station", "fullnamelocalized": "", "latitude": "53.30248", "longitude": "-6.1783708333", "operators": [{"name": "GAD", "operatortype": 1, "routes": ["114"]}]}, {"stopid": "6200", "displaystopid": "6200", "shortname": "Blackglen", "shortnamelocalized": "An Gleann Dubh", "fullname": "Rockview", "fullnamelocalized": "", "latitude": "53.2693041667", "longitude": "-6.2406086111", "operators": [{"name": "GAD", "operatortype": 1, "routes": ["114"]}]}, {"stopid": "6201", "displaystopid": "6201", "shortname": "Ticknock", "shortnamelocalized": "Tigh an Chnoic", "fullname": "Sandyford View", "fullnamelocalized": "", "latitude": "53.2695722222", "longitude": "-6.2392783333", "operators": [{"name": "GAD", "operatortype": 1, "routes": ["114"]}]}, {"stopid": "6196", "displaystopid": "6196", "shortname": "Ticknock Hill", "shortnamelocalized": "Cnoc Thigh an Chnoi", "fullname": "Rockview Road", "fullnamelocalized": "", "latitude": "53.2667311111", "longitude": "-6.2416588889", "operators": [{"name": "GAD", "operatortype": 1, "routes": ["114"]}]}, {"stopid": "3532", "displaystopid": "3532", "shortname": "Blackglen Rd", "shortnamelocalized": "Br an Ghleanna Dhui", "fullname": "Blackglen Rd", "fullnamelocalized": "", "latitude": "53.2647947222", "longitude": "-6.2401641667", "operators": [{"name": "GAD", "operatortype": 1, "routes": ["114"]}]}, {"stopid": "3533", "displaystopid": "3533", "shortname": "Blackglen Rd", "shortnamelocalized": "Br an Ghleanna Dhui", "fullname": "Blackglen Rd", "fullnamelocalized": "", "latitude": "53.2654719444", "longitude": "-6.2343044444", "operators": [{"name": "GAD", "operatortype": 1, "routes": ["114"]}]}, {"stopid": "3491", "displaystopid": "3491", "shortname": "Sandyford Rd", "shortnamelocalized": "Br \u00c3\u0081th an Ghainimh", "fullname": "Sandyford Rd", "fullnamelocalized": "", "latitude": "53.2655319444", "longitude": "-6.229265", "operators": [{"name": "GAD", "operatortype": 1, "routes": ["114"]}]}, {"stopid": "6007", "displaystopid": "6007", "shortname": "Sandyford Rd", "shortnamelocalized": "Br \u00c3\u0081th an Ghainimh", "fullname": "Sandyford Rd", "fullnamelocalized": "", "latitude": "53.2697616667", "longitude": "-6.229", "operators": [{"name": "GAD", "operatortype": 1, "routes": ["114"]}]}, {"stopid": "4349", "displaystopid": "4349", "shortname": "Blackthorn Drive", "shortnamelocalized": "C\u00c3\u00a9ide an Draighin", "fullname": "Blackthorn Drive", "fullnamelocalized": "", "latitude": "53.2758455556", "longitude": "-6.2277138889", "operators": [{"name": "GAD", "operatortype": 1, "routes": ["114"]}]}, {"stopid": "3184", "displaystopid": "3184", "shortname": "Blackthorn Drive", "shortnamelocalized": "C\u00c3\u00a9ide an Draighin", "fullname": "Moreen Avenue", "fullnamelocalized": "", "latitude": "53.2761925", "longitude": "-6.2238458333", "operators": [{"name": "GAD", "operatortype": 1, "routes": ["114"]}]}, {"stopid": "449", "displaystopid": "449", "shortname": "Blackthorn Road", "shortnamelocalized": "C\u00c3\u00a9ide an Draighin", "fullname": "Blackthorn Road", "fullnamelocalized": "", "latitude": "53.2763227778", "longitude": "-6.2169275", "operators": [{"name": "GAD", "operatortype": 1, "routes": ["114"]}]}, {"stopid": "450", "displaystopid": "450", "shortname": "Blackthorn Road", "shortnamelocalized": "B\u00c3\u00b3thar an Draighin", "fullname": "Blackthorn Road", "fullnamelocalized": "", "latitude": "53.2750941667", "longitude": "-6.2134997222", "operators": [{"name": "GAD", "operatortype": 1, "routes": ["114"]}]}, {"stopid": "3181", "displaystopid": "3181", "shortname": "Blackthorn Road", "shortnamelocalized": "B\u00c3\u00b3thar an Draighin", "fullname": "Blackthorn Road", "fullnamelocalized": "", "latitude": "53.2767338889", "longitude": "-6.2077777778", "operators": [{"name": "GAD", "operatortype": 1, "routes": ["114"]}]}, {"stopid": "5142", "displaystopid": "5142", "shortname": "Blackthorn Avenue", "shortnamelocalized": "Ascaill an Draighin", "fullname": "Blackthorn Avenue", "fullnamelocalized": "", "latitude": "53.2776744444", "longitude": "-6.2051741667", "operators": [{"name": "GAD", "operatortype": 1, "routes": ["114"]}]}, {"stopid": "3187", "displaystopid": "3187", "shortname": "Burton Hall Rd", "shortnamelocalized": "Br Halla an Bhurt\u00c3\u00ban", "fullname": "Burton Hall Road", "fullnamelocalized": "", "latitude": "53.2738266667", "longitude": "-6.2033261111", "operators": [{"name": "GAD", "operatortype": 1, "routes": ["114"]}]}, {"stopid": "3188", "displaystopid": "3188", "shortname": "Leopardstown Rd", "shortnamelocalized": "Br Bhaile na Lobhar", "fullname": "Racecourse", "fullnamelocalized": "", "latitude": "53.2731775", "longitude": "-6.19902", "operators": [{"name": "GAD", "operatortype": 1, "routes": ["114"]}]}, {"stopid": "3189", "displaystopid": "3189", "shortname": "Leopardstown Rd", "shortnamelocalized": "Br Bhaile na Lobhar", "fullname": "Silverpark GAA", "fullnamelocalized": "", "latitude": "53.2738444444", "longitude": "-6.1955730556", "operators": [{"name": "GAD", "operatortype": 1, "routes": ["114"]}]}, {"stopid": "3190", "displaystopid": "3190", "shortname": "Leopardstown Rd", "shortnamelocalized": "Br Bhaile na Lobhar", "fullname": "Torquay Road", "fullnamelocalized": "", "latitude": "53.2748847222", "longitude": "-6.1918555556", "operators": [{"name": "GAD", "operatortype": 1, "routes": ["114"]}]}, {"stopid": "3191", "displaystopid": "3191", "shortname": "Leopardstown Rd", "shortnamelocalized": "Br Bhaile na Lobhar", "fullname": "Foxrock Manor", "fullnamelocalized": "", "latitude": "53.2763141667", "longitude": "-6.1883311111", "operators": [{"name": "GAD", "operatortype": 1, "routes": ["114"]}]}, {"stopid": "3192", "displaystopid": "3192", "shortname": "Leopardstown Rd", "shortnamelocalized": "Br Bhaile na Lobhar", "fullname": "Kelston Park", "fullnamelocalized": "", "latitude": "53.2774822222", "longitude": "-6.1865272222", "operators": [{"name": "GAD", "operatortype": 1, "routes": ["114"]}]}, {"stopid": "3193", "displaystopid": "3193", "shortname": "Newtownpark Ave", "shortnamelocalized": "Asc Ph\u00c3\u00a1irc an Bhail", "fullname": "Newtownpark Avenue", "fullnamelocalized": "", "latitude": "53.2798336111", "longitude": "-6.1833383333", "operators": [{"name": "GAD", "operatortype": 1, "routes": ["114"]}]}, {"stopid": "3194", "displaystopid": "3194", "shortname": "Newtownpark Ave", "shortnamelocalized": "Asc Ph\u00c3\u00a1irc an Bhail", "fullname": "Holly Park Avenue", "fullnamelocalized": "", "latitude": "53.2832613889", "longitude": "-6.1788436111", "operators": [{"name": "GAD", "operatortype": 1, "routes": ["114"]}]}, {"stopid": "3195", "displaystopid": "3195", "shortname": "Newtownpark Ave", "shortnamelocalized": "Asc Ph\u00c3\u00a1irc an Bhail", "fullname": "Meadow Close", "fullnamelocalized": "", "latitude": "53.2848952778", "longitude": "-6.1775441667", "operators": [{"name": "GAD", "operatortype": 1, "routes": ["114"]}]}, {"stopid": "3196", "displaystopid": "3196", "shortname": "Newtown Park", "shortnamelocalized": "P\u00c3\u00a1irc an Bhaile Nua", "fullname": "Newtown Park", "fullnamelocalized": "", "latitude": "53.2873802778", "longitude": "-6.1772283333", "operators": [{"name": "GAD", "operatortype": 1, "routes": ["114"]}]}, {"stopid": "3198", "displaystopid": "3198", "shortname": "Carysfort Avenue", "shortnamelocalized": "Ascaill Dh\u00c3\u00ban Car\u00c3\u00bain", "fullname": "Carysfort Avenue", "fullnamelocalized": "", "latitude": "53.2898855556", "longitude": "-6.1806019444", "operators": [{"name": "GAD", "operatortype": 1, "routes": ["114"]}]}, {"stopid": "3199", "displaystopid": "3199", "shortname": "Carysfort Avenue", "shortnamelocalized": "Ascaill Dh\u00c3\u00ban Car\u00c3\u00bain", "fullname": "Proby Square", "fullnamelocalized": "", "latitude": "53.2925844444", "longitude": "-6.1801719444", "operators": [{"name": "GAD", "operatortype": 1, "routes": ["114"]}]}, {"stopid": "3200", "displaystopid": "3200", "shortname": "Carysfort Avenue", "shortnamelocalized": "Ascaill Dh\u00c3\u00ban Car\u00c3\u00bain", "fullname": "UCD Smurfit", "fullnamelocalized": "", "latitude": "53.2966727778", "longitude": "-6.1806583333", "operators": [{"name": "GAD", "operatortype": 1, "routes": ["114"]}]}, {"stopid": "3201", "displaystopid": "3201", "shortname": "Carysfort Avenue", "shortnamelocalized": "Ascaill Dh\u00c3\u00ban Car\u00c3\u00bain", "fullname": "Frascati Road", "fullnamelocalized": "", "latitude": "53.2995347222", "longitude": "-6.1797263889", "operators": [{"name": "GAD", "operatortype": 1, "routes": ["114"]}]}, {"stopid": "3085", "displaystopid": "3085", "shortname": "Blackrock", "shortnamelocalized": "An Charraig Dhubh", "fullname": "Blackrock Station", "fullnamelocalized": "", "latitude": "53.30248", "longitude": "-6.1783708333", "operators": [{"name": "GAD", "operatortype": 1, "routes": ["114", "114"]}]}]}, {"operator": "GAD", "origin": "Blackrock", "originlocalized": "An Charraig Dhubh ", "destination": "Blackglen", "destinationlocalized": "Blackglen", "lastupdated": "29/06/2020 11:32:41", "stops": [{"stopid": "3082", "displaystopid": "3082", "shortname": "Carysfort Avenue", "shortnamelocalized": "Ascaill Dh\u00c3\u00ban Car\u00c3\u00bain", "fullname": "Carysfort Avenue", "fullnamelocalized": "", "latitude": "53.3004536111", "longitude": "-6.1780969444", "operators": [{"name": "GAD", "operatortype": 1, "routes": ["114"]}]}, {"stopid": "3165", "displaystopid": "3165", "shortname": "Carysfort Avenue", "shortnamelocalized": "Ascaill Dh\u00c3\u00ban Car\u00c3\u00bain", "fullname": "Carysfort Avenue", "fullnamelocalized": "", "latitude": "53.2993461111", "longitude": "-6.1797344444", "operators": [{"name": "GAD", "operatortype": 1, "routes": ["114"]}]}, {"stopid": "3166", "displaystopid": "3166", "shortname": "Carysfort Avenue", "shortnamelocalized": "Ascaill Dh\u00c3\u00ban Car\u00c3\u00bain", "fullname": "UCD Smurfit", "fullnamelocalized": "", "latitude": "53.2970116667", "longitude": "-6.1804938889", "operators": [{"name": "GAD", "operatortype": 1, "routes": ["114"]}]}, {"stopid": "3167", "displaystopid": "3167", "shortname": "Carysfort Avenue", "shortnamelocalized": "Ascaill Dh\u00c3\u00ban Car\u00c3\u00bain", "fullname": "Brookfield Terrace", "fullnamelocalized": "", "latitude": "53.2949238889", "longitude": "-6.1803277778", "operators": [{"name": "GAD", "operatortype": 1, "routes": ["114"]}]}, {"stopid": "3168", "displaystopid": "3168", "shortname": "Carysfort Avenue", "shortnamelocalized": "Ascaill Dh\u00c3\u00ban Car\u00c3\u00bain", "fullname": "Proby Square", "fullnamelocalized": "", "latitude": "53.2922416667", "longitude": "-6.1800816667", "operators": [{"name": "GAD", "operatortype": 1, "routes": ["114"]}]}, {"stopid": "3169", "displaystopid": "3169", "shortname": "Carysfort Avenue", "shortnamelocalized": "Ascaill Dh\u00c3\u00ban Car\u00c3\u00bain", "fullname": "St Augustine's Sch", "fullnamelocalized": "", "latitude": "53.2885727778", "longitude": "-6.1805675", "operators": [{"name": "GAD", "operatortype": 1, "routes": ["114"]}]}, {"stopid": "3171", "displaystopid": "3171", "shortname": "Newtown Park", "shortnamelocalized": "P\u00c3\u00a1irc an Bhaile Nua", "fullname": "Newtown Park", "fullnamelocalized": "", "latitude": "53.287425", "longitude": "-6.1766263889", "operators": [{"name": "GAD", "operatortype": 1, "routes": ["114"]}]}, {"stopid": "3173", "displaystopid": "3173", "shortname": "Newtownpark Ave", "shortnamelocalized": "Asc Ph\u00c3\u00a1irc an Bhail", "fullname": "Meadow Close", "fullnamelocalized": "", "latitude": "53.2847052778", "longitude": "-6.1774472222", "operators": [{"name": "GAD", "operatortype": 1, "routes": ["114"]}]}, {"stopid": "3174", "displaystopid": "3174", "shortname": "Newtownpark Ave", "shortnamelocalized": "Asc Ph\u00c3\u00a1irc an Bhail", "fullname": "Granville Park", "fullnamelocalized": "", "latitude": "53.2821483333", "longitude": "-6.1801205556", "operators": [{"name": "GAD", "operatortype": 1, "routes": ["114"]}]}, {"stopid": "3175", "displaystopid": "3175", "shortname": "Newtownpark Ave", "shortnamelocalized": "Asc Ph\u00c3\u00a1irc an Bhail", "fullname": "Stillorgan Road", "fullnamelocalized": "", "latitude": "53.2796194444", "longitude": "-6.1834525", "operators": [{"name": "GAD", "operatortype": 1, "routes": ["114"]}]}, {"stopid": "3176", "displaystopid": "3176", "shortname": "Leopardstown Rd", "shortnamelocalized": "Br Bhaile na Lobhar", "fullname": "Leopardstown Rd", "fullnamelocalized": "", "latitude": "53.2775747222", "longitude": "-6.1861186111", "operators": [{"name": "GAD", "operatortype": 1, "routes": ["114"]}]}, {"stopid": "3177", "displaystopid": "3177", "shortname": "Leopardstown Rd", "shortnamelocalized": "Br Bhaile na Lobhar", "fullname": "Foxrock Manor", "fullnamelocalized": "", "latitude": "53.2760722222", "longitude": "-6.1883863889", "operators": [{"name": "GAD", "operatortype": 1, "routes": ["114"]}]}, {"stopid": "3178", "displaystopid": "3178", "shortname": "Leopardstown Rd", "shortnamelocalized": "Br Bhaile na Lobhar", "fullname": "Torquay Road", "fullnamelocalized": "", "latitude": "53.2743713889", "longitude": "-6.1929869444", "operators": [{"name": "GAD", "operatortype": 1, "routes": ["114"]}]}, {"stopid": "3179", "displaystopid": "3179", "shortname": "Leopardstown Rd", "shortnamelocalized": "Br Bhaile na Lobhar", "fullname": "Racecourse", "fullnamelocalized": "", "latitude": "53.2730038889", "longitude": "-6.1988325", "operators": [{"name": "GAD", "operatortype": 1, "routes": ["114"]}]}, {"stopid": "4984", "displaystopid": "4984", "shortname": "Burton Hall Rd", "shortnamelocalized": "Br Halla an Bhurt\u00c3\u00ban", "fullname": "Burton Hall Rd", "fullnamelocalized": "", "latitude": "53.2736569444", "longitude": "-6.2033933333", "operators": [{"name": "GAD", "operatortype": 1, "routes": ["114"]}]}, {"stopid": "448", "displaystopid": "448", "shortname": "Burton Hall Rd", "shortnamelocalized": "Br Halla an Bhurt\u00c3\u00ban", "fullname": "Burton Hall Rd", "fullnamelocalized": "", "latitude": "53.2748386111", "longitude": "-6.2066725", "operators": [{"name": "GAD", "operatortype": 1, "routes": ["114"]}]}, {"stopid": "4457", "displaystopid": "4457", "shortname": "Blackthorn Drive", "shortnamelocalized": "C\u00c3\u00a9ide an Draighin", "fullname": "Ravenscourt Park", "fullnamelocalized": "", "latitude": "53.2750555556", "longitude": "-6.2091377778", "operators": [{"name": "GAD", "operatortype": 1, "routes": ["114"]}]}, {"stopid": "3182", "displaystopid": "3182", "shortname": "Blackthorn Road", "shortnamelocalized": "B\u00c3\u00b3thar an Draighin", "fullname": "Heather Road", "fullnamelocalized": "", "latitude": "53.2752119444", "longitude": "-6.2141694444", "operators": [{"name": "GAD", "operatortype": 1, "routes": ["114"]}]}, {"stopid": "3183", "displaystopid": "3183", "shortname": "Blackthorn Road", "shortnamelocalized": "B\u00c3\u00b3thar an Draighin", "fullname": "Bracken Road", "fullnamelocalized": "", "latitude": "53.27619", "longitude": "-6.2170527778", "operators": [{"name": "GAD", "operatortype": 1, "routes": ["114"]}]}, {"stopid": "4350", "displaystopid": "4350", "shortname": "Blackthorn Drive", "shortnamelocalized": "C\u00c3\u00a9ide an Draighin", "fullname": "Moreen Avenue", "fullnamelocalized": "", "latitude": "53.2761883333", "longitude": "-6.2229761111", "operators": [{"name": "GAD", "operatortype": 1, "routes": ["114"]}]}, {"stopid": "5143", "displaystopid": "5143", "shortname": "Blackthorn Drive", "shortnamelocalized": "C\u00c3\u00a9ide an Draighin", "fullname": "Blackthorn Green", "fullnamelocalized": "", "latitude": "53.2756669444", "longitude": "-6.2277963889", "operators": [{"name": "GAD", "operatortype": 1, "routes": ["114"]}]}, {"stopid": "2833", "displaystopid": "2833", "shortname": "Sandyford Rd", "shortnamelocalized": "Br \u00c3\u0081th an Ghainimh", "fullname": "Sandyford Rd", "fullnamelocalized": "", "latitude": "53.2743919444", "longitude": "-6.2290936111", "operators": [{"name": "GAD", "operatortype": 1, "routes": ["114"]}]}, {"stopid": "6006", "displaystopid": "6006", "shortname": "Sandyford Rd", "shortnamelocalized": "Br \u00c3\u0081th an Ghainimh", "fullname": "Sandyford Rd", "fullnamelocalized": "", "latitude": "53.2698661111", "longitude": "-6.2287708333", "operators": [{"name": "GAD", "operatortype": 1, "routes": ["114"]}]}, {"stopid": "3493", "displaystopid": "3493", "shortname": "Blackglen Rd", "shortnamelocalized": "Br an Ghleanna Dhui", "fullname": "Blackglen Rd", "fullnamelocalized": "", "latitude": "53.2652072222", "longitude": "-6.2297880556", "operators": [{"name": "GAD", "operatortype": 1, "routes": ["114"]}]}, {"stopid": "3494", "displaystopid": "3494", "shortname": "Blackglen Rd", "shortnamelocalized": "Br an Ghleanna Dhui", "fullname": "Blackglen Rd", "fullnamelocalized": "", "latitude": "53.2654030556", "longitude": "-6.2345022222", "operators": [{"name": "GAD", "operatortype": 1, "routes": ["114"]}]}, {"stopid": "6197", "displaystopid": "6197", "shortname": "Ticknock", "shortnamelocalized": "Tigh an Chnoic", "fullname": "Rockview Road", "fullnamelocalized": "", "latitude": "53.2666872222", "longitude": "-6.2417205556", "operators": [{"name": "GAD", "operatortype": 1, "routes": ["114"]}]}, {"stopid": "6198", "displaystopid": "6198", "shortname": "Ticknock", "shortnamelocalized": "Tigh an Chnoic", "fullname": "Sandyford View", "fullnamelocalized": "", "latitude": "53.2694758333", "longitude": "-6.2394472222", "operators": [{"name": "GAD", "operatortype": 1, "routes": ["114"]}]}, {"stopid": "6199", "displaystopid": "6199", "shortname": "Blackglen", "shortnamelocalized": "An Gleann Dubh", "fullname": "Rockview", "fullnamelocalized": "", "latitude": "53.2691816667", "longitude": "-6.2408236111", "operators": [{"name": "GAD", "operatortype": 1, "routes": ["114"]}]}]}]}