{"errorcode": "0", "errormessage": "", "numberofresults": 6, "route": "39", "timestamp": "07/07/2020 16:11:24", "results": [{"operator": "bac", "origin": "Burlington Rd", "originlocalized": "", "destination": "Ongar", "destinationlocalized": "Ongar", "lastupdated": "27/06/2016 08:56:05", "stops": [{"stopid": "7333", "displaystopid": "7333", "shortname": "Burlington Road", "shortnamelocalized": "B\u00c3\u00b3thar Burlington", "fullname": "Burlington Road", "fullnamelocalized": "", "latitude": "53.3329969444", "longitude": "-6.247035", "operators": [{"name": "bac", "operatortype": 1, "routes": ["39"]}]}, {"stopid": "1852", "displaystopid": "1852", "shortname": "Clonsilla Rd", "shortnamelocalized": "Br Chluain Saileach", "fullname": "Clonsilla Rd", "fullnamelocalized": "", "latitude": "53.3874063889", "longitude": "-6.3834388889", "operators": [{"name": "bac", "operatortype": 1, "routes": ["39"]}]}, {"stopid": "1853", "displaystopid": "1853", "shortname": "Clonsilla Rd", "shortnamelocalized": "Br Chluain Saileach", "fullname": "Clonsilla Rd", "fullnamelocalized": "", "latitude": "53.3846275", "longitude": "-6.3886402778", "operators": [{"name": "bac", "operatortype": 1, "routes": ["39"]}]}, {"stopid": "1854", "displaystopid": "1854", "shortname": "Clonsilla Rd", "shortnamelocalized": "Br Chluain Saileach", "fullname": "Clonsilla Rd", "fullnamelocalized": "", "latitude": "53.3835844444", "longitude": "-6.3919419444", "operators": [{"name": "bac", "operatortype": 1, "routes": ["39"]}]}, {"stopid": "1869", "displaystopid": "1869", "shortname": "Blakestown Way", "shortnamelocalized": "Sl\u00c3\u00ad Bhaile an Bhl\u00c3\u00a1c", "fullname": "Blakestown Way", "fullnamelocalized": "", "latitude": "53.3962486111", "longitude": "-6.3999755556", "operators": [{"name": "bac", "operatortype": 1, "routes": ["39"]}]}, {"stopid": "1870", "displaystopid": "1870", "shortname": "Whitestown Pk", "shortnamelocalized": "Pc Bhaile an Fhaoit", "fullname": "Whitestown Pk", "fullnamelocalized": "", "latitude": "53.3980563889", "longitude": "-6.3994113889", "operators": [{"name": "bac", "operatortype": 1, "routes": ["39"]}]}, {"stopid": "1871", "displaystopid": "1871", "shortname": "Huntstown Way", "shortnamelocalized": "Sl\u00c3\u00ad Bhaile an Hunta", "fullname": "Huntstown Way", "fullnamelocalized": "", "latitude": "53.3996497222", "longitude": "-6.4022841667", "operators": [{"name": "bac", "operatortype": 1, "routes": ["39"]}]}, {"stopid": "1872", "displaystopid": "1872", "shortname": "Huntstown Way", "shortnamelocalized": "Sl\u00c3\u00ad Bhaile an Hunta", "fullname": "Huntstown Way", "fullnamelocalized": "", "latitude": "53.4007794444", "longitude": "-6.4061069444", "operators": [{"name": "bac", "operatortype": 1, "routes": ["39"]}]}, {"stopid": "1873", "displaystopid": "1873", "shortname": "Huntstown Way", "shortnamelocalized": "Sl\u00c3\u00ad Bhaile an Hunta", "fullname": "Huntstown Way", "fullnamelocalized": "", "latitude": "53.4017061111", "longitude": "-6.4102230556", "operators": [{"name": "bac", "operatortype": 1, "routes": ["39"]}]}, {"stopid": "1874", "displaystopid": "1874", "shortname": "Huntstown Way", "shortnamelocalized": "Sl\u00c3\u00ad Bhaile an Hunta", "fullname": "Huntstown Way", "fullnamelocalized": "", "latitude": "53.4002316667", "longitude": "-6.4135713889", "operators": [{"name": "bac", "operatortype": 1, "routes": ["39"]}]}, {"stopid": "1875", "displaystopid": "1875", "shortname": "Huntstown Way", "shortnamelocalized": "Sl\u00c3\u00ad Bhaile an Hunta", "fullname": "Huntstown Way", "fullnamelocalized": "", "latitude": "53.3982666667", "longitude": "-6.4151633333", "operators": [{"name": "bac", "operatortype": 1, "routes": ["39"]}]}, {"stopid": "1876", "displaystopid": "1876", "shortname": "Hartstown Rd", "shortnamelocalized": "Br Bhaile an Hartai", "fullname": "Hartstown Rd", "fullnamelocalized": "", "latitude": "53.3964361111", "longitude": "-6.416735", "operators": [{"name": "bac", "operatortype": 1, "routes": ["39"]}]}, {"stopid": "1877", "displaystopid": "1877", "shortname": "Hartstown Rd", "shortnamelocalized": "Br Bhaile an Hartai", "fullname": "Hartstown Rd", "fullnamelocalized": "", "latitude": "53.3934219444", "longitude": "-6.4185311111", "operators": [{"name": "bac", "operatortype": 1, "routes": ["39"]}]}, {"stopid": "1878", "displaystopid": "1878", "shortname": "Hartstown Rd", "shortnamelocalized": "Br Bhaile an Hartai", "fullname": "Hartstown Rd", "fullnamelocalized": "", "latitude": "53.3911805556", "longitude": "-6.4155619444", "operators": [{"name": "bac", "operatortype": 1, "routes": ["39"]}]}, {"stopid": "1879", "displaystopid": "1879", "shortname": "Hartstown Rd", "shortnamelocalized": "Br Bhaile an Hartai", "fullname": "Hartstown Rd", "fullnamelocalized": "", "latitude": "53.3911727778", "longitude": "-6.4095780556", "operators": [{"name": "bac", "operatortype": 1, "routes": ["39"]}]}, {"stopid": "6172", "displaystopid": "6172", "shortname": "Blanchardstown Rd S", "shortnamelocalized": "Br Bhaile Bhlains\u00c3\u00a9i", "fullname": "Blanchardstown Rd South", "fullnamelocalized": "", "latitude": "53.3866941667", "longitude": "-6.4019725", "operators": [{"name": "bac", "operatortype": 1, "routes": ["39"]}]}, {"stopid": "7011", "displaystopid": "7011", "shortname": "Ongar Road", "shortnamelocalized": "B\u00c3\u00b3thar Ongar", "fullname": "Ongar Road", "fullnamelocalized": "", "latitude": "53.4018561111", "longitude": "-6.4353769444", "operators": [{"name": "bac", "operatortype": 1, "routes": ["39"]}]}, {"stopid": "7020", "displaystopid": "7020", "shortname": "Ongar Road", "shortnamelocalized": "B\u00c3\u00b3thar Ongar", "fullname": "Ongar Road", "fullnamelocalized": "", "latitude": "53.3941611111", "longitude": "-6.4311280556", "operators": [{"name": "bac", "operatortype": 1, "routes": ["39"]}]}, {"stopid": "7025", "displaystopid": "7025", "shortname": "Blanchardstown", "shortnamelocalized": "Baile Bhlains\u00c3\u00a9ir", "fullname": "Blanchardstown", "fullnamelocalized": "", "latitude": "53.3939911111", "longitude": "-6.3918352778", "operators": [{"name": "bac", "operatortype": 1, "routes": ["39"]}]}, {"stopid": "7029", "displaystopid": "7029", "shortname": "Ongar Road", "shortnamelocalized": "B\u00c3\u00b3thar Ongar", "fullname": "Ongar Road", "fullnamelocalized": "", "latitude": "53.3956630556", "longitude": "-6.4295611111", "operators": [{"name": "bac", "operatortype": 1, "routes": ["39"]}]}, {"stopid": "7038", "displaystopid": "7038", "shortname": "Ongar Road", "shortnamelocalized": "B\u00c3\u00b3thar Ongar", "fullname": "Ongar Road", "fullnamelocalized": "", "latitude": "53.3982738889", "longitude": "-6.4310638889", "operators": [{"name": "bac", "operatortype": 1, "routes": ["39"]}]}, {"stopid": "7586", "displaystopid": "7586", "shortname": "Leinster Street Sou", "shortnamelocalized": "Sr\u00c3\u00a1id Laighean Thea", "fullname": "Leinster Street South", "fullnamelocalized": "", "latitude": "53.34197", "longitude": "-6.2532011111", "operators": [{"name": "bac", "operatortype": 1, "routes": ["39"]}]}, {"stopid": "7587", "displaystopid": "7587", "shortname": "Pearse Street", "shortnamelocalized": "Sr\u00c3\u00a1id an Phiarsaigh", "fullname": "Pearse Street", "fullnamelocalized": "", "latitude": "53.3445361111", "longitude": "-6.2516461111", "operators": [{"name": "bac", "operatortype": 1, "routes": ["39"]}]}, {"stopid": "7588", "displaystopid": "7588", "shortname": "Pearse Street", "shortnamelocalized": "Sr\u00c3\u00a1id an Phiarsaigh", "fullname": "Pearse Street", "fullnamelocalized": "", "latitude": "53.3449711111", "longitude": "-6.2539338889", "operators": [{"name": "bac", "operatortype": 1, "routes": ["39"]}]}, {"stopid": "1805", "displaystopid": "1805", "shortname": "Old Cabra Rd", "shortnamelocalized": "Snbr na Cabra\u00c3\u00ad", "fullname": "Old Cabra Rd", "fullnamelocalized": "", "latitude": "53.3611569444", "longitude": "-6.2975480556", "operators": [{"name": "bac", "operatortype": 1, "routes": ["39"]}]}, {"stopid": "1806", "displaystopid": "1806", "shortname": "Navan Road", "shortnamelocalized": "B\u00c3\u00b3thar na hUaimhe", "fullname": "Navan Road", "fullnamelocalized": "", "latitude": "53.3629338889", "longitude": "-6.3025769444", "operators": [{"name": "bac", "operatortype": 1, "routes": ["39"]}]}, {"stopid": "1807", "displaystopid": "1807", "shortname": "Navan Road", "shortnamelocalized": "B\u00c3\u00b3thar na hUaimhe", "fullname": "Navan Road", "fullnamelocalized": "", "latitude": "53.3744161111", "longitude": "-6.3392511111", "operators": [{"name": "bac", "operatortype": 1, "routes": ["39"]}]}, {"stopid": "1808", "displaystopid": "1808", "shortname": "Navan Road", "shortnamelocalized": "B\u00c3\u00b3thar na hUaimhe", "fullname": "Navan Road", "fullnamelocalized": "", "latitude": "53.379245", "longitude": "-6.3542138889", "operators": [{"name": "bac", "operatortype": 1, "routes": ["39"]}]}, {"stopid": "1813", "displaystopid": "1813", "shortname": "Blanchardstown", "shortnamelocalized": "Baile Bhlains\u00c3\u00a9ir", "fullname": "Blanchardstown", "fullnamelocalized": "", "latitude": "53.3856797222", "longitude": "-6.3741083333", "operators": [{"name": "bac", "operatortype": 1, "routes": ["39"]}]}, {"stopid": "1814", "displaystopid": "1814", "shortname": "Blanchardstown", "shortnamelocalized": "Baile Bhlains\u00c3\u00a9ir", "fullname": "Blanchardstown", "fullnamelocalized": "", "latitude": "53.3875619444", "longitude": "-6.3789977778", "operators": [{"name": "bac", "operatortype": 1, "routes": ["39"]}]}, {"stopid": "1844", "displaystopid": "1844", "shortname": "Coolmine Industrial", "shortnamelocalized": "Eas Tionscla\u00c3\u00adochta ", "fullname": "Coolmine Industrial Est", "fullnamelocalized": "", "latitude": "53.3854111111", "longitude": "-6.3961125", "operators": [{"name": "bac", "operatortype": 1, "routes": ["39"]}]}, {"stopid": "2171", "displaystopid": "2171", "shortname": "Ongar", "shortnamelocalized": "Ongar", "fullname": "Ongar", "fullnamelocalized": "", "latitude": "53.3979238889", "longitude": "-6.44212", "operators": [{"name": "bac", "operatortype": 1, "routes": ["39"]}]}, {"stopid": "7156", "displaystopid": "7156", "shortname": "Grange Road", "shortnamelocalized": "B\u00c3\u00b3thar na Gr\u00c3\u00a1ins\u00c3\u00ad", "fullname": "Grange Road", "fullnamelocalized": "", "latitude": "53.38891", "longitude": "-6.4305488889", "operators": [{"name": "bac", "operatortype": 1, "routes": ["39"]}]}, {"stopid": "7160", "displaystopid": "7160", "shortname": "Ongar", "shortnamelocalized": "Ongar", "fullname": "Ongar", "fullnamelocalized": "", "latitude": "53.39661", "longitude": "-6.4426", "operators": [{"name": "bac", "operatortype": 1, "routes": ["39"]}]}, {"stopid": "7161", "displaystopid": "7161", "shortname": "Ongar", "shortnamelocalized": "Ongar", "fullname": "Ongar", "fullnamelocalized": "", "latitude": "53.3920580556", "longitude": "-6.4381630556", "operators": [{"name": "bac", "operatortype": 1, "routes": ["39"]}]}, {"stopid": "7162", "displaystopid": "7162", "shortname": "Ongar", "shortnamelocalized": "Ongar", "fullname": "Ongar", "fullnamelocalized": "", "latitude": "53.3912769444", "longitude": "-6.4333880556", "operators": [{"name": "bac", "operatortype": 1, "routes": ["39"]}]}, {"stopid": "7167", "displaystopid": "7167", "shortname": "Navan Road", "shortnamelocalized": "B\u00c3\u00b3thar na hUaimhe", "fullname": "Navan Road", "fullnamelocalized": "", "latitude": "53.3758661111", "longitude": "-6.3447730556", "operators": [{"name": "bac", "operatortype": 1, "routes": ["39"]}]}, {"stopid": "7576", "displaystopid": "7576", "shortname": "Dawson Street", "shortnamelocalized": "", "fullname": "Virtual Stop", "fullnamelocalized": "", "latitude": "53.340604", "longitude": "-6.258494", "operators": [{"name": "bac", "operatortype": 1, "routes": ["39"]}]}, {"stopid": "1660", "displaystopid": "1660", "shortname": "Navan Road", "shortnamelocalized": "B\u00c3\u00b3thar na hUaimhe", "fullname": "Navan Road", "fullnamelocalized": "", "latitude": "53.3651669444", "longitude": "-6.3093130556", "operators": [{"name": "bac", "operatortype": 1, "routes": ["39"]}]}, {"stopid": "1661", "displaystopid": "1661", "shortname": "Navan Road", "shortnamelocalized": "B\u00c3\u00b3thar na hUaimhe", "fullname": "Navan Road", "fullnamelocalized": "", "latitude": "53.3664388889", "longitude": "-6.3131219444", "operators": [{"name": "bac", "operatortype": 1, "routes": ["39"]}]}, {"stopid": "1662", "displaystopid": "1662", "shortname": "Navan Road", "shortnamelocalized": "B\u00c3\u00b3thar na hUaimhe", "fullname": "Navan Road", "fullnamelocalized": "", "latitude": "53.3675361111", "longitude": "-6.3175680556", "operators": [{"name": "bac", "operatortype": 1, "routes": ["39"]}]}, {"stopid": "1664", "displaystopid": "1664", "shortname": "Navan Road", "shortnamelocalized": "B\u00c3\u00b3thar na hUaimhe", "fullname": "Navan Road", "fullnamelocalized": "", "latitude": "53.3694038889", "longitude": "-6.3238438889", "operators": [{"name": "bac", "operatortype": 1, "routes": ["39"]}]}, {"stopid": "1665", "displaystopid": "1665", "shortname": "Navan Road", "shortnamelocalized": "B\u00c3\u00b3thar na hUaimhe", "fullname": "Navan Road", "fullnamelocalized": "", "latitude": "53.3706469444", "longitude": "-6.3276838889", "operators": [{"name": "bac", "operatortype": 1, "routes": ["39"]}]}, {"stopid": "1666", "displaystopid": "1666", "shortname": "Navan Road", "shortnamelocalized": "B\u00c3\u00b3thar na hUaimhe", "fullname": "Navan Road", "fullnamelocalized": "", "latitude": "53.3715861111", "longitude": "-6.3305788889", "operators": [{"name": "bac", "operatortype": 1, "routes": ["39"]}]}, {"stopid": "1887", "displaystopid": "1887", "shortname": "Clonsilla Rd", "shortnamelocalized": "Br Chluain Saileach", "fullname": "Clonsilla Rd", "fullnamelocalized": "", "latitude": "53.3829966667", "longitude": "-6.4104541667", "operators": [{"name": "bac", "operatortype": 1, "routes": ["39"]}]}, {"stopid": "1888", "displaystopid": "1888", "shortname": "Clonsilla Rd", "shortnamelocalized": "Br Chluain Saileach", "fullname": "Clonsilla Rd", "fullnamelocalized": "", "latitude": "53.3831733333", "longitude": "-6.4122513889", "operators": [{"name": "bac", "operatortype": 1, "routes": ["39"]}]}, {"stopid": "1889", "displaystopid": "1889", "shortname": "Clonsilla Rd", "shortnamelocalized": "Br Chluain Saileach", "fullname": "Clonsilla Rd", "fullnamelocalized": "", "latitude": "53.3834166667", "longitude": "-6.4170377778", "operators": [{"name": "bac", "operatortype": 1, "routes": ["39"]}]}, {"stopid": "1890", "displaystopid": "1890", "shortname": "Clonsilla Road", "shortnamelocalized": "Br Chluain Saileach", "fullname": "Clonsilla Road", "fullnamelocalized": "", "latitude": "53.3835366667", "longitude": "-6.4220241667", "operators": [{"name": "bac", "operatortype": 1, "routes": ["39"]}]}, {"stopid": "1891", "displaystopid": "1891", "shortname": "Clonsilla", "shortnamelocalized": "Cluain Saileach", "fullname": "Clonsilla", "fullnamelocalized": "", "latitude": "53.38728", "longitude": "-6.4297138889", "operators": [{"name": "bac", "operatortype": 1, "routes": ["39"]}]}, {"stopid": "1899", "displaystopid": "1899", "shortname": "Shelerin Road", "shortnamelocalized": "B\u00c3\u00b3thar Shelerin", "fullname": "Shelerin Road", "fullnamelocalized": "", "latitude": "53.3877661111", "longitude": "-6.4094111111", "operators": [{"name": "bac", "operatortype": 1, "routes": ["39"]}]}, {"stopid": "1911", "displaystopid": "1911", "shortname": "Prussia Street", "shortnamelocalized": "Sr\u00c3\u00a1id na Pr\u00c3\u00baise", "fullname": "Prussia Street", "fullnamelocalized": "", "latitude": "53.3566", "longitude": "-6.2883", "operators": [{"name": "bac", "operatortype": 1, "routes": ["39"]}]}, {"stopid": "1913", "displaystopid": "1913", "shortname": "Old Cabra Rd", "shortnamelocalized": "Snbr na Cabra\u00c3\u00ad", "fullname": "Old Cabra Rd", "fullnamelocalized": "", "latitude": "53.3588", "longitude": "-6.2917811111", "operators": [{"name": "bac", "operatortype": 1, "routes": ["39"]}]}, {"stopid": "1914", "displaystopid": "1914", "shortname": "Old Cabra Rd", "shortnamelocalized": "Snbr na Cabra\u00c3\u00ad", "fullname": "Old Cabra Rd", "fullnamelocalized": "", "latitude": "53.3602080556", "longitude": "-6.2948011111", "operators": [{"name": "bac", "operatortype": 1, "routes": ["39"]}]}, {"stopid": "328", "displaystopid": "328", "shortname": "Aston Quay", "shortnamelocalized": "C\u00c3\u00a9 Aston", "fullname": "Aston Quay", "fullnamelocalized": "", "latitude": "53.3464230556", "longitude": "-6.2610611111", "operators": [{"name": "bac", "operatortype": 1, "routes": ["39"]}]}, {"stopid": "4362", "displaystopid": "4362", "shortname": "Blanchardstown Rd", "shortnamelocalized": "Br Bhaile Bhlains\u00c3\u00a9i", "fullname": "Blanchardstown Rd", "fullnamelocalized": "", "latitude": "53.3931136111", "longitude": "-6.39877", "operators": [{"name": "bac", "operatortype": 1, "routes": ["39"]}]}, {"stopid": "7240", "displaystopid": "7240", "shortname": "Hansfield Road", "shortnamelocalized": "B\u00c3\u00b3thar Ph\u00c3\u00a1irc Hans", "fullname": "Hansfield Road", "fullnamelocalized": "", "latitude": "53.3834338889", "longitude": "-6.42349", "operators": [{"name": "bac", "operatortype": 1, "routes": ["39"]}]}, {"stopid": "780", "displaystopid": "780", "shortname": "Waterloo Road", "shortnamelocalized": "B\u00c3\u00b3thar Waterloo", "fullname": "Waterloo Road", "fullnamelocalized": "", "latitude": "53.3310633333", "longitude": "-6.2443438889", "operators": [{"name": "bac", "operatortype": 1, "routes": ["39"]}]}, {"stopid": "781", "displaystopid": "781", "shortname": "Waterloo Road", "shortnamelocalized": "B\u00c3\u00b3thar Waterloo", "fullname": "Waterloo Road", "fullnamelocalized": "", "latitude": "53.3326263889", "longitude": "-6.2436641667", "operators": [{"name": "bac", "operatortype": 1, "routes": ["39"]}]}, {"stopid": "782", "displaystopid": "782", "shortname": "Baggot St", "shortnamelocalized": "Sr Bhag\u00c3\u00b3id", "fullname": "Baggot St", "fullnamelocalized": "", "latitude": "53.33358", "longitude": "-6.24458", "operators": [{"name": "bac", "operatortype": 1, "routes": ["39"]}]}, {"stopid": "783", "displaystopid": "783", "shortname": "Baggot St", "shortnamelocalized": "Sr Bhag\u00c3\u00b3id", "fullname": "Baggot St", "fullnamelocalized": "", "latitude": "53.3353119444", "longitude": "-6.246965", "operators": [{"name": "bac", "operatortype": 1, "routes": ["39"]}]}, {"stopid": "784", "displaystopid": "784", "shortname": "Baggot St", "shortnamelocalized": "Sr Bhag\u00c3\u00b3id", "fullname": "Baggot St", "fullnamelocalized": "", "latitude": "53.3364138889", "longitude": "-6.2486180556", "operators": [{"name": "bac", "operatortype": 1, "routes": ["39"]}]}, {"stopid": "785", "displaystopid": "785", "shortname": "Pembroke St", "shortnamelocalized": "Sr Pheambr\u00c3\u00b3g", "fullname": "Pembroke St", "fullnamelocalized": "", "latitude": "53.3370969444", "longitude": "-6.2517338889", "operators": [{"name": "bac", "operatortype": 1, "routes": ["39"]}]}, {"stopid": "786", "displaystopid": "786", "shortname": "Leeson Street", "shortnamelocalized": "Sr L\u00c3\u00adosain \u00c3\u008docht", "fullname": "Leeson Street", "fullnamelocalized": "", "latitude": "53.3351980556", "longitude": "-6.2561169444", "operators": [{"name": "bac", "operatortype": 1, "routes": ["39"]}]}, {"stopid": "793", "displaystopid": "793", "shortname": "Dawson Street", "shortnamelocalized": "Sr\u00c3\u00a1id Dh\u00c3\u00a1sain", "fullname": "Dawson Street", "fullnamelocalized": "", "latitude": "53.3401638889", "longitude": "-6.2586611111", "operators": [{"name": "bac", "operatortype": 1, "routes": ["39"]}]}, {"stopid": "1443", "displaystopid": "1443", "shortname": "Essex Quay", "shortnamelocalized": "C\u00c3\u00a9 Essex", "fullname": "Essex Quay", "fullnamelocalized": "", "latitude": "53.345125", "longitude": "-6.2695280556", "operators": [{"name": "bac", "operatortype": 1, "routes": ["39"]}]}, {"stopid": "1444", "displaystopid": "1444", "shortname": "Merchant's Quay", "shortnamelocalized": "C\u00c3\u00a9 na gCeannaithe", "fullname": "Merchant's Quay", "fullnamelocalized": "", "latitude": "53.3451188889", "longitude": "-6.2737388889", "operators": [{"name": "bac", "operatortype": 1, "routes": ["39"]}]}, {"stopid": "1445", "displaystopid": "1445", "shortname": "Ushers Quay", "shortnamelocalized": "C\u00c3\u00a9 Uis\u00c3\u00a9ir", "fullname": "Ushers Quay", "fullnamelocalized": "", "latitude": "53.345675", "longitude": "-6.2782838889", "operators": [{"name": "bac", "operatortype": 1, "routes": ["39"]}]}, {"stopid": "1647", "displaystopid": "1647", "shortname": "Blackhall Place", "shortnamelocalized": "Pl\u00c3\u00a1s Blackhall", "fullname": "Blackhall Place", "fullnamelocalized": "", "latitude": "53.3483469444", "longitude": "-6.2822369444", "operators": [{"name": "bac", "operatortype": 1, "routes": ["39"]}]}, {"stopid": "1648", "displaystopid": "1648", "shortname": "Stoneybatter", "shortnamelocalized": "B\u00c3\u00b3thar na gCloch", "fullname": "Stoneybatter", "fullnamelocalized": "", "latitude": "53.3510880556", "longitude": "-6.2827838889", "operators": [{"name": "bac", "operatortype": 1, "routes": ["39"]}]}, {"stopid": "1649", "displaystopid": "1649", "shortname": "Manor Street", "shortnamelocalized": "Sr\u00c3\u00a1id an Mhain\u00c3\u00a9ir", "fullname": "Manor Street", "fullnamelocalized": "", "latitude": "53.35257", "longitude": "-6.2843619444", "operators": [{"name": "bac", "operatortype": 1, "routes": ["39"]}]}, {"stopid": "4464", "displaystopid": "4464", "shortname": "Blakestown Way", "shortnamelocalized": "Sl\u00c3\u00ad Bhaile an Bhl\u00c3\u00a1c", "fullname": "Blakestown Way", "fullnamelocalized": "", "latitude": "53.3941713889", "longitude": "-6.3992413889", "operators": [{"name": "bac", "operatortype": 1, "routes": ["39"]}]}, {"stopid": "4493", "displaystopid": "4493", "shortname": "Blanchardstown Rd", "shortnamelocalized": "Br Bhaile Bhlains\u00c3\u00a9i", "fullname": "Blanchardstown Rd", "fullnamelocalized": "", "latitude": "53.3905819444", "longitude": "-6.4003233333", "operators": [{"name": "bac", "operatortype": 1, "routes": ["39"]}]}, {"stopid": "7047", "displaystopid": "7047", "shortname": "Ongar", "shortnamelocalized": "Ongar", "fullname": "Ongar", "fullnamelocalized": "", "latitude": "53.3931169444", "longitude": "-6.4426038889", "operators": [{"name": "bac", "operatortype": 1, "routes": ["39"]}]}, {"stopid": "767", "displaystopid": "767", "shortname": "UCD Campus", "shortnamelocalized": "UCD", "fullname": "UCD Campus", "fullnamelocalized": "", "latitude": "53.3053469444", "longitude": "-6.2166280556", "operators": [{"name": "bac", "operatortype": 1, "routes": ["39"]}]}, {"stopid": "768", "displaystopid": "768", "shortname": "Stillorgan Road", "shortnamelocalized": "B\u00c3\u00b3thar Stigh Lorgan", "fullname": "Stillorgan Road", "fullnamelocalized": "", "latitude": "53.3094661111", "longitude": "-6.21888", "operators": [{"name": "bac", "operatortype": 1, "routes": ["39"]}]}, {"stopid": "769", "displaystopid": "769", "shortname": "Stillorgan Road", "shortnamelocalized": "B\u00c3\u00b3thar Stigh Lorgan", "fullname": "Stillorgan Road", "fullnamelocalized": "", "latitude": "53.3118938889", "longitude": "-6.2213169444", "operators": [{"name": "bac", "operatortype": 1, "routes": ["39"]}]}, {"stopid": "770", "displaystopid": "770", "shortname": "Stillorgan Road", "shortnamelocalized": "B\u00c3\u00b3thar Stigh Lorgan", "fullname": "Stillorgan Road", "fullnamelocalized": "", "latitude": "53.314675", "longitude": "-6.2257830556", "operators": [{"name": "bac", "operatortype": 1, "routes": ["39"]}]}, {"stopid": "771", "displaystopid": "771", "shortname": "Stillorgan Road", "shortnamelocalized": "B\u00c3\u00b3thar Stigh Lorgan", "fullname": "Stillorgan Road", "fullnamelocalized": "", "latitude": "53.3158769444", "longitude": "-6.2277630556", "operators": [{"name": "bac", "operatortype": 1, "routes": ["39"]}]}, {"stopid": "772", "displaystopid": "772", "shortname": "Stillorgan Road", "shortnamelocalized": "B\u00c3\u00b3thar Stigh Lorgan", "fullname": "Stillorgan Road", "fullnamelocalized": "", "latitude": "53.3184980556", "longitude": "-6.231315", "operators": [{"name": "bac", "operatortype": 1, "routes": ["39"]}]}, {"stopid": "773", "displaystopid": "773", "shortname": "Donnybrook Rd", "shortnamelocalized": "Br Dhomhnach Broc", "fullname": "Donnybrook Rd", "fullnamelocalized": "", "latitude": "53.3199119444", "longitude": "-6.2332569444", "operators": [{"name": "bac", "operatortype": 1, "routes": ["39"]}]}, {"stopid": "774", "displaystopid": "774", "shortname": "Donnybrook", "shortnamelocalized": "Domhnach Broc", "fullname": "Donnybrook", "fullnamelocalized": "", "latitude": "53.3216038889", "longitude": "-6.2354838889", "operators": [{"name": "bac", "operatortype": 1, "routes": ["39"]}]}, {"stopid": "775", "displaystopid": "775", "shortname": "Morehampton Road", "shortnamelocalized": "B\u00c3\u00b3thar Morehampton", "fullname": "Morehampton Road", "fullnamelocalized": "", "latitude": "53.3234811111", "longitude": "-6.2390638889", "operators": [{"name": "bac", "operatortype": 1, "routes": ["39"]}]}, {"stopid": "776", "displaystopid": "776", "shortname": "Morehampton Road", "shortnamelocalized": "B\u00c3\u00b3thar Morehampton", "fullname": "Morehampton Road", "fullnamelocalized": "", "latitude": "53.32549", "longitude": "-6.2418038889", "operators": [{"name": "bac", "operatortype": 1, "routes": ["39"]}]}, {"stopid": "777", "displaystopid": "777", "shortname": "Morehampton Road", "shortnamelocalized": "B\u00c3\u00b3thar Morehampton", "fullname": "Morehampton Road", "fullnamelocalized": "", "latitude": "53.3269438889", "longitude": "-6.2436588889", "operators": [{"name": "bac", "operatortype": 1, "routes": ["39"]}]}, {"stopid": "779", "displaystopid": "779", "shortname": "Waterloo Road", "shortnamelocalized": "B\u00c3\u00b3thar Waterloo", "fullname": "Waterloo Road", "fullnamelocalized": "", "latitude": "53.3286886111", "longitude": "-6.2454475", "operators": [{"name": "bac", "operatortype": 1, "routes": ["39"]}]}]}, {"operator": "bac", "origin": "Burlington Road", "originlocalized": "Burlington Road", "destination": "Ongar", "destinationlocalized": "Ongar", "lastupdated": "29/06/2020 07:39:34", "stops": [{"stopid": "7333", "displaystopid": "7333", "shortname": "Burlington Road", "shortnamelocalized": "B\u00c3\u00b3thar Burlington", "fullname": "Burlington Road", "fullnamelocalized": "", "latitude": "53.3329969444", "longitude": "-6.247035", "operators": [{"name": "bac", "operatortype": 1, "routes": ["39"]}]}, {"stopid": "783", "displaystopid": "783", "shortname": "Baggot St", "shortnamelocalized": "Sr Bhag\u00c3\u00b3id", "fullname": "Baggot St", "fullnamelocalized": "", "latitude": "53.3353119444", "longitude": "-6.246965", "operators": [{"name": "bac", "operatortype": 1, "routes": ["39"]}]}, {"stopid": "784", "displaystopid": "784", "shortname": "Baggot St", "shortnamelocalized": "Sr Bhag\u00c3\u00b3id", "fullname": "Baggot St", "fullnamelocalized": "", "latitude": "53.3364138889", "longitude": "-6.2486180556", "operators": [{"name": "bac", "operatortype": 1, "routes": ["39"]}]}, {"stopid": "785", "displaystopid": "785", "shortname": "Pembroke St", "shortnamelocalized": "Sr Pheambr\u00c3\u00b3g", "fullname": "Pembroke St", "fullnamelocalized": "", "latitude": "53.3370969444", "longitude": "-6.2517338889", "operators": [{"name": "bac", "operatortype": 1, "routes": ["39"]}]}, {"stopid": "786", "displaystopid": "786", "shortname": "Leeson Street", "shortnamelocalized": "Sr L\u00c3\u00adosain \u00c3\u008docht", "fullname": "Leeson Street", "fullnamelocalized": "", "latitude": "53.3351980556", "longitude": "-6.2561169444", "operators": [{"name": "bac", "operatortype": 1, "routes": ["39"]}]}, {"stopid": "793", "displaystopid": "793", "shortname": "Dawson Street", "shortnamelocalized": "Sr\u00c3\u00a1id Dh\u00c3\u00a1sain", "fullname": "Dawson Street", "fullnamelocalized": "", "latitude": "53.3401638889", "longitude": "-6.2586611111", "operators": [{"name": "bac", "operatortype": 1, "routes": ["39"]}]}, {"stopid": "7586", "displaystopid": "7586", "shortname": "Leinster Street Sou", "shortnamelocalized": "Sr\u00c3\u00a1id Laighean Thea", "fullname": "Leinster Street South", "fullnamelocalized": "", "latitude": "53.34197", "longitude": "-6.2532011111", "operators": [{"name": "bac", "operatortype": 1, "routes": ["39"]}]}, {"stopid": "7587", "displaystopid": "7587", "shortname": "Pearse Street", "shortnamelocalized": "Sr\u00c3\u00a1id an Phiarsaigh", "fullname": "Pearse Street", "fullnamelocalized": "", "latitude": "53.3445361111", "longitude": "-6.2516461111", "operators": [{"name": "bac", "operatortype": 1, "routes": ["39"]}]}, {"stopid": "7588", "displaystopid": "7588", "shortname": "Pearse Street", "shortnamelocalized": "Sr\u00c3\u00a1id an Phiarsaigh", "fullname": "Pearse Street", "fullnamelocalized": "", "latitude": "53.3449711111", "longitude": "-6.2539338889", "operators": [{"name": "bac", "operatortype": 1, "routes": ["39"]}]}, {"stopid": "328", "displaystopid": "328", "shortname": "Aston Quay", "shortnamelocalized": "C\u00c3\u00a9 Aston", "fullname": "Aston Quay", "fullnamelocalized": "", "latitude": "53.3464230556", "longitude": "-6.2610611111", "operators": [{"name": "bac", "operatortype": 1, "routes": ["39"]}]}, {"stopid": "1443", "displaystopid": "1443", "shortname": "Essex Quay", "shortnamelocalized": "C\u00c3\u00a9 Essex", "fullname": "Essex Quay", "fullnamelocalized": "", "latitude": "53.345125", "longitude": "-6.2695280556", "operators": [{"name": "bac", "operatortype": 1, "routes": ["39"]}]}, {"stopid": "1444", "displaystopid": "1444", "shortname": "Merchant's Quay", "shortnamelocalized": "C\u00c3\u00a9 na gCeannaithe", "fullname": "Merchant's Quay", "fullnamelocalized": "", "latitude": "53.3451188889", "longitude": "-6.2737388889", "operators": [{"name": "bac", "operatortype": 1, "routes": ["39"]}]}, {"stopid": "1445", "displaystopid": "1445", "shortname": "Ushers Quay", "shortnamelocalized": "C\u00c3\u00a9 Uis\u00c3\u00a9ir", "fullname": "Ushers Quay", "fullnamelocalized": "", "latitude": "53.345675", "longitude": "-6.2782838889", "operators": [{"name": "bac", "operatortype": 1, "routes": ["39"]}]}, {"stopid": "1647", "displaystopid": "1647", "shortname": "Blackhall Place", "shortnamelocalized": "Pl\u00c3\u00a1s Blackhall", "fullname": "Blackhall Place", "fullnamelocalized": "", "latitude": "53.3483469444", "longitude": "-6.2822369444", "operators": [{"name": "bac", "operatortype": 1, "routes": ["39"]}]}, {"stopid": "1648", "displaystopid": "1648", "shortname": "Stoneybatter", "shortnamelocalized": "B\u00c3\u00b3thar na gCloch", "fullname": "Stoneybatter", "fullnamelocalized": "", "latitude": "53.3510880556", "longitude": "-6.2827838889", "operators": [{"name": "bac", "operatortype": 1, "routes": ["39"]}]}, {"stopid": "1649", "displaystopid": "1649", "shortname": "Manor Street", "shortnamelocalized": "Sr\u00c3\u00a1id an Mhain\u00c3\u00a9ir", "fullname": "Manor Street", "fullnamelocalized": "", "latitude": "53.35257", "longitude": "-6.2843619444", "operators": [{"name": "bac", "operatortype": 1, "routes": ["39"]}]}, {"stopid": "1911", "displaystopid": "1911", "shortname": "Prussia Street", "shortnamelocalized": "Sr\u00c3\u00a1id na Pr\u00c3\u00baise", "fullname": "Prussia Street", "fullnamelocalized": "", "latitude": "53.3566", "longitude": "-6.2883", "operators": [{"name": "bac", "operatortype": 1, "routes": ["39"]}]}, {"stopid": "1913", "displaystopid": "1913", "shortname": "Old Cabra Rd", "shortnamelocalized": "Snbr na Cabra\u00c3\u00ad", "fullname": "Old Cabra Rd", "fullnamelocalized": "", "latitude": "53.3588", "longitude": "-6.2917811111", "operators": [{"name": "bac", "operatortype": 1, "routes": ["39"]}]}, {"stopid": "1914", "displaystopid": "1914", "shortname": "Old Cabra Rd", "shortnamelocalized": "Snbr na Cabra\u00c3\u00ad", "fullname": "Old Cabra Rd", "fullnamelocalized": "", "latitude": "53.3602080556", "longitude": "-6.2948011111", "operators": [{"name": "bac", "operatortype": 1, "routes": ["39"]}]}, {"stopid": "1805", "displaystopid": "1805", "shortname": "Old Cabra Rd", "shortnamelocalized": "Snbr na Cabra\u00c3\u00ad", "fullname": "Old Cabra Rd", "fullnamelocalized": "", "latitude": "53.3611569444", "longitude": "-6.2975480556", "operators": [{"name": "bac", "operatortype": 1, "routes": ["39"]}]}, {"stopid": "1806", "displaystopid": "1806", "shortname": "Navan Road", "shortnamelocalized": "B\u00c3\u00b3thar na hUaimhe", "fullname": "Navan Road", "fullnamelocalized": "", "latitude": "53.3629338889", "longitude": "-6.3025769444", "operators": [{"name": "bac", "operatortype": 1, "routes": ["39"]}]}, {"stopid": "1660", "displaystopid": "1660", "shortname": "Navan Road", "shortnamelocalized": "B\u00c3\u00b3thar na hUaimhe", "fullname": "Navan Road", "fullnamelocalized": "", "latitude": "53.3651669444", "longitude": "-6.3093130556", "operators": [{"name": "bac", "operatortype": 1, "routes": ["39"]}]}, {"stopid": "1661", "displaystopid": "1661", "shortname": "Navan Road", "shortnamelocalized": "B\u00c3\u00b3thar na hUaimhe", "fullname": "Navan Road", "fullnamelocalized": "", "latitude": "53.3664388889", "longitude": "-6.3131219444", "operators": [{"name": "bac", "operatortype": 1, "routes": ["39"]}]}, {"stopid": "1662", "displaystopid": "1662", "shortname": "Navan Road", "shortnamelocalized": "B\u00c3\u00b3thar na hUaimhe", "fullname": "Navan Road", "fullnamelocalized": "", "latitude": "53.3675361111", "longitude": "-6.3175680556", "operators": [{"name": "bac", "operatortype": 1, "routes": ["39"]}]}, {"stopid": "1664", "displaystopid": "1664", "shortname": "Navan Road", "shortnamelocalized": "B\u00c3\u00b3thar na hUaimhe", "fullname": "Navan Road", "fullnamelocalized": "", "latitude": "53.3694038889", "longitude": "-6.3238438889", "operators": [{"name": "bac", "operatortype": 1, "routes": ["39"]}]}, {"stopid": "1665", "displaystopid": "1665", "shortname": "Navan Road", "shortnamelocalized": "B\u00c3\u00b3thar na hUaimhe", "fullname": "Navan Road", "fullnamelocalized": "", "latitude": "53.3706469444", "longitude": "-6.3276838889", "operators": [{"name": "bac", "operatortype": 1, "routes": ["39"]}]}, {"stopid": "1666", "displaystopid": "1666", "shortname": "Navan Road", "shortnamelocalized": "B\u00c3\u00b3thar na hUaimhe", "fullname": "Navan Road", "fullnamelocalized": "", "latitude": "53.3715861111", "longitude": "-6.3305788889", "operators": [{"name": "bac", "operatortype": 1, "routes": ["39"]}]}, {"stopid": "1807", "displaystopid": "1807", "shortname": "Navan Road", "shortnamelocalized": "B\u00c3\u00b3thar na hUaimhe", "fullname": "Navan Road", "fullnamelocalized": "", "latitude": "53.3744161111", "longitude": "-6.3392511111", "operators": [{"name": "bac", "operatortype": 1, "routes": ["39"]}]}, {"stopid": "7167", "displaystopid": "7167", "shortname": "Navan Road", "shortnamelocalized": "B\u00c3\u00b3thar na hUaimhe", "fullname": "Navan Road", "fullnamelocalized": "", "latitude": "53.3758661111", "longitude": "-6.3447730556", "operators": [{"name": "bac", "operatortype": 1, "routes": ["39"]}]}, {"stopid": "1808", "displaystopid": "1808", "shortname": "Navan Road", "shortnamelocalized": "B\u00c3\u00b3thar na hUaimhe", "fullname": "Navan Road", "fullnamelocalized": "", "latitude": "53.379245", "longitude": "-6.3542138889", "operators": [{"name": "bac", "operatortype": 1, "routes": ["39"]}]}, {"stopid": "1813", "displaystopid": "1813", "shortname": "Blanchardstown", "shortnamelocalized": "Baile Bhlains\u00c3\u00a9ir", "fullname": "Blanchardstown", "fullnamelocalized": "", "latitude": "53.3856797222", "longitude": "-6.3741083333", "operators": [{"name": "bac", "operatortype": 1, "routes": ["39"]}]}, {"stopid": "1814", "displaystopid": "1814", "shortname": "Blanchardstown", "shortnamelocalized": "Baile Bhlains\u00c3\u00a9ir", "fullname": "Blanchardstown", "fullnamelocalized": "", "latitude": "53.3875619444", "longitude": "-6.3789977778", "operators": [{"name": "bac", "operatortype": 1, "routes": ["39"]}]}, {"stopid": "1852", "displaystopid": "1852", "shortname": "Clonsilla Rd", "shortnamelocalized": "Br Chluain Saileach", "fullname": "Clonsilla Rd", "fullnamelocalized": "", "latitude": "53.3874063889", "longitude": "-6.3834388889", "operators": [{"name": "bac", "operatortype": 1, "routes": ["39"]}]}, {"stopid": "1853", "displaystopid": "1853", "shortname": "Clonsilla Rd", "shortnamelocalized": "Br Chluain Saileach", "fullname": "Clonsilla Rd", "fullnamelocalized": "", "latitude": "53.3846275", "longitude": "-6.3886402778", "operators": [{"name": "bac", "operatortype": 1, "routes": ["39"]}]}, {"stopid": "1854", "displaystopid": "1854", "shortname": "Clonsilla Rd", "shortnamelocalized": "Br Chluain Saileach", "fullname": "Clonsilla Rd", "fullnamelocalized": "", "latitude": "53.3835844444", "longitude": "-6.3919419444", "operators": [{"name": "bac", "operatortype": 1, "routes": ["39"]}]}, {"stopid": "1844", "displaystopid": "1844", "shortname": "Coolmine Industrial", "shortnamelocalized": "Eas Tionscla\u00c3\u00adochta ", "fullname": "Coolmine Industrial Est", "fullnamelocalized": "", "latitude": "53.3854111111", "longitude": "-6.3961125", "operators": [{"name": "bac", "operatortype": 1, "routes": ["39"]}]}, {"stopid": "6172", "displaystopid": "6172", "shortname": "Blanchardstown Rd S", "shortnamelocalized": "Br Bhaile Bhlains\u00c3\u00a9i", "fullname": "Blanchardstown Rd South", "fullnamelocalized": "", "latitude": "53.3866941667", "longitude": "-6.4019725", "operators": [{"name": "bac", "operatortype": 1, "routes": ["39"]}]}, {"stopid": "4493", "displaystopid": "4493", "shortname": "Blanchardstown Rd", "shortnamelocalized": "Br Bhaile Bhlains\u00c3\u00a9i", "fullname": "Blanchardstown Rd", "fullnamelocalized": "", "latitude": "53.3905819444", "longitude": "-6.4003233333", "operators": [{"name": "bac", "operatortype": 1, "routes": ["39"]}]}, {"stopid": "4362", "displaystopid": "4362", "shortname": "Blanchardstown Rd", "shortnamelocalized": "Br Bhaile Bhlains\u00c3\u00a9i", "fullname": "Blanchardstown Rd", "fullnamelocalized": "", "latitude": "53.3931136111", "longitude": "-6.39877", "operators": [{"name": "bac", "operatortype": 1, "routes": ["39"]}]}, {"stopid": "7025", "displaystopid": "7025", "shortname": "Blanchardstown", "shortnamelocalized": "Baile Bhlains\u00c3\u00a9ir", "fullname": "Blanchardstown", "fullnamelocalized": "", "latitude": "53.3939911111", "longitude": "-6.3918352778", "operators": [{"name": "bac", "operatortype": 1, "routes": ["39"]}]}, {"stopid": "4464", "displaystopid": "4464", "shortname": "Blakestown Way", "shortnamelocalized": "Sl\u00c3\u00ad Bhaile an Bhl\u00c3\u00a1c", "fullname": "Blakestown Way", "fullnamelocalized": "", "latitude": "53.3941713889", "longitude": "-6.3992413889", "operators": [{"name": "bac", "operatortype": 1, "routes": ["39"]}]}, {"stopid": "1869", "displaystopid": "1869", "shortname": "Blakestown Way", "shortnamelocalized": "Sl\u00c3\u00ad Bhaile an Bhl\u00c3\u00a1c", "fullname": "Blakestown Way", "fullnamelocalized": "", "latitude": "53.3962486111", "longitude": "-6.3999755556", "operators": [{"name": "bac", "operatortype": 1, "routes": ["39"]}]}, {"stopid": "1870", "displaystopid": "1870", "shortname": "Whitestown Pk", "shortnamelocalized": "Pc Bhaile an Fhaoit", "fullname": "Whitestown Pk", "fullnamelocalized": "", "latitude": "53.3980563889", "longitude": "-6.3994113889", "operators": [{"name": "bac", "operatortype": 1, "routes": ["39"]}]}, {"stopid": "1871", "displaystopid": "1871", "shortname": "Huntstown Way", "shortnamelocalized": "Sl\u00c3\u00ad Bhaile an Hunta", "fullname": "Huntstown Way", "fullnamelocalized": "", "latitude": "53.3996497222", "longitude": "-6.4022841667", "operators": [{"name": "bac", "operatortype": 1, "routes": ["39"]}]}, {"stopid": "1872", "displaystopid": "1872", "shortname": "Huntstown Way", "shortnamelocalized": "Sl\u00c3\u00ad Bhaile an Hunta", "fullname": "Huntstown Way", "fullnamelocalized": "", "latitude": "53.4007794444", "longitude": "-6.4061069444", "operators": [{"name": "bac", "operatortype": 1, "routes": ["39"]}]}, {"stopid": "1873", "displaystopid": "1873", "shortname": "Huntstown Way", "shortnamelocalized": "Sl\u00c3\u00ad Bhaile an Hunta", "fullname": "Huntstown Way", "fullnamelocalized": "", "latitude": "53.4017061111", "longitude": "-6.4102230556", "operators": [{"name": "bac", "operatortype": 1, "routes": ["39"]}]}, {"stopid": "1874", "displaystopid": "1874", "shortname": "Huntstown Way", "shortnamelocalized": "Sl\u00c3\u00ad Bhaile an Hunta", "fullname": "Huntstown Way", "fullnamelocalized": "", "latitude": "53.4002316667", "longitude": "-6.4135713889", "operators": [{"name": "bac", "operatortype": 1, "routes": ["39"]}]}, {"stopid": "1875", "displaystopid": "1875", "shortname": "Huntstown Way", "shortnamelocalized": "Sl\u00c3\u00ad Bhaile an Hunta", "fullname": "Huntstown Way", "fullnamelocalized": "", "latitude": "53.3982666667", "longitude": "-6.4151633333", "operators": [{"name": "bac", "operatortype": 1, "routes": ["39"]}]}, {"stopid": "1876", "displaystopid": "1876", "shortname": "Hartstown Rd", "shortnamelocalized": "Br Bhaile an Hartai", "fullname": "Hartstown Rd", "fullnamelocalized": "", "latitude": "53.3964361111", "longitude": "-6.416735", "operators": [{"name": "bac", "operatortype": 1, "routes": ["39"]}]}, {"stopid": "1877", "displaystopid": "1877", "shortname": "Hartstown Rd", "shortnamelocalized": "Br Bhaile an Hartai", "fullname": "Hartstown Rd", "fullnamelocalized": "", "latitude": "53.3934219444", "longitude": "-6.4185311111", "operators": [{"name": "bac", "operatortype": 1, "routes": ["39"]}]}, {"stopid": "1878", "displaystopid": "1878", "shortname": "Hartstown Rd", "shortnamelocalized": "Br Bhaile an Hartai", "fullname": "Hartstown Rd", "fullnamelocalized": "", "latitude": "53.3911805556", "longitude": "-6.4155619444", "operators": [{"name": "bac", "operatortype": 1, "routes": ["39"]}]}, {"stopid": "1879", "displaystopid": "1879", "shortname": "Hartstown Rd", "shortnamelocalized": "Br Bhaile an Hartai", "fullname": "Hartstown Rd", "fullnamelocalized": "", "latitude": "53.3911727778", "longitude": "-6.4095780556", "operators": [{"name": "bac", "operatortype": 1, "routes": ["39"]}]}, {"stopid": "1899", "displaystopid": "1899", "shortname": "Shelerin Road", "shortnamelocalized": "B\u00c3\u00b3thar Shelerin", "fullname": "Shelerin Road", "fullnamelocalized": "", "latitude": "53.3877661111", "longitude": "-6.4094111111", "operators": [{"name": "bac", "operatortype": 1, "routes": ["39"]}]}, {"stopid": "1887", "displaystopid": "1887", "shortname": "Clonsilla Rd", "shortnamelocalized": "Br Chluain Saileach", "fullname": "Clonsilla Rd", "fullnamelocalized": "", "latitude": "53.3829966667", "longitude": "-6.4104541667", "operators": [{"name": "bac", "operatortype": 1, "routes": ["39"]}]}, {"stopid": "1888", "displaystopid": "1888", "shortname": "Clonsilla Rd", "shortnamelocalized": "Br Chluain Saileach", "fullname": "Clonsilla Rd", "fullnamelocalized": "", "latitude": "53.3831733333", "longitude": "-6.4122513889", "operators": [{"name": "bac", "operatortype": 1, "routes": ["39"]}]}, {"stopid": "1889", "displaystopid": "1889", "shortname": "Clonsilla Rd", "shortnamelocalized": "Br Chluain Saileach", "fullname": "Clonsilla Rd", "fullnamelocalized": "", "latitude": "53.3834166667", "longitude": "-6.4170377778", "operators": [{"name": "bac", "operatortype": 1, "routes": ["39"]}]}, {"stopid": "1890", "displaystopid": "1890", "shortname": "Clonsilla Road", "shortnamelocalized": "Br Chluain Saileach", "fullname": "Clonsilla Road", "fullnamelocalized": "", "latitude": "53.3835366667", "longitude": "-6.4220241667", "operators": [{"name": "bac", "operatortype": 1, "routes": ["39"]}]}, {"stopid": "7240", "displaystopid": "7240", "shortname": "Hansfield Road", "shortnamelocalized": "B\u00c3\u00b3thar Ph\u00c3\u00a1irc Hans", "fullname": "Hansfield Road", "fullnamelocalized": "", "latitude": "53.3834338889", "longitude": "-6.42349", "operators": [{"name": "bac", "operatortype": 1, "routes": ["39"]}]}, {"stopid": "1891", "displaystopid": "1891", "shortname": "Clonsilla", "shortnamelocalized": "Cluain Saileach", "fullname": "Clonsilla", "fullnamelocalized": "", "latitude": "53.38728", "longitude": "-6.4297138889", "operators": [{"name": "bac", "operatortype": 1, "routes": ["39"]}]}, {"stopid": "7156", "displaystopid": "7156", "shortname": "Grange Road", "shortnamelocalized": "B\u00c3\u00b3thar na Gr\u00c3\u00a1ins\u00c3\u00ad", "fullname": "Grange Road", "fullnamelocalized": "", "latitude": "53.38891", "longitude": "-6.4305488889", "operators": [{"name": "bac", "operatortype": 1, "routes": ["39"]}]}, {"stopid": "7020", "displaystopid": "7020", "shortname": "Ongar Road", "shortnamelocalized": "B\u00c3\u00b3thar Ongar", "fullname": "Ongar Road", "fullnamelocalized": "", "latitude": "53.3941611111", "longitude": "-6.4311280556", "operators": [{"name": "bac", "operatortype": 1, "routes": ["39"]}]}, {"stopid": "7029", "displaystopid": "7029", "shortname": "Ongar Road", "shortnamelocalized": "B\u00c3\u00b3thar Ongar", "fullname": "Ongar Road", "fullnamelocalized": "", "latitude": "53.3956630556", "longitude": "-6.4295611111", "operators": [{"name": "bac", "operatortype": 1, "routes": ["39"]}]}, {"stopid": "7038", "displaystopid": "7038", "shortname": "Ongar Road", "shortnamelocalized": "B\u00c3\u00b3thar Ongar", "fullname": "Ongar Road", "fullnamelocalized": "", "latitude": "53.3982738889", "longitude": "-6.4310638889", "operators": [{"name": "bac", "operatortype": 1, "routes": ["39"]}]}, {"stopid": "7011", "displaystopid": "7011", "shortname": "Ongar Road", "shortnamelocalized": "B\u00c3\u00b3thar Ongar", "fullname": "Ongar Road", "fullnamelocalized": "", "latitude": "53.4018561111", "longitude": "-6.4353769444", "operators": [{"name": "bac", "operatortype": 1, "routes": ["39"]}]}, {"stopid": "2171", "displaystopid": "2171", "shortname": "Ongar", "shortnamelocalized": "Ongar", "fullname": "Ongar", "fullnamelocalized": "", "latitude": "53.3979238889", "longitude": "-6.44212", "operators": [{"name": "bac", "operatortype": 1, "routes": ["39"]}]}, {"stopid": "7160", "displaystopid": "7160", "shortname": "Ongar", "shortnamelocalized": "Ongar", "fullname": "Ongar", "fullnamelocalized": "", "latitude": "53.39661", "longitude": "-6.4426", "operators": [{"name": "bac", "operatortype": 1, "routes": ["39"]}]}, {"stopid": "7700", "displaystopid": "7700", "shortname": "Ongar", "shortnamelocalized": "", "fullname": "Ongar", "fullnamelocalized": "", "latitude": "53.3949111111", "longitude": "-6.4441580556", "operators": [{"name": "bac", "operatortype": 1, "routes": ["39"]}]}, {"stopid": "7047", "displaystopid": "7047", "shortname": "Ongar", "shortnamelocalized": "Ongar", "fullname": "Ongar", "fullnamelocalized": "", "latitude": "53.3931169444", "longitude": "-6.4426038889", "operators": [{"name": "bac", "operatortype": 1, "routes": ["39"]}]}, {"stopid": "7161", "displaystopid": "7161", "shortname": "Ongar", "shortnamelocalized": "Ongar", "fullname": "Ongar", "fullnamelocalized": "", "latitude": "53.3920580556", "longitude": "-6.4381630556", "operators": [{"name": "bac", "operatortype": 1, "routes": ["39"]}]}, {"stopid": "7162", "displaystopid": "7162", "shortname": "Ongar", "shortnamelocalized": "Ongar", "fullname": "Ongar", "fullnamelocalized": "", "latitude": "53.3912769444", "longitude": "-6.4333880556", "operators": [{"name": "bac", "operatortype": 1, "routes": ["39"]}]}]}, {"operator": "bac", "origin": "Ongar", "originlocalized": "Ongar", "destination": "Bachelors Walk", "destinationlocalized": "", "lastupdated": "29/06/2020 07:39:43", "stops": [{"stopid": "7158", "displaystopid": "7158", "shortname": "Ongar", "shortnamelocalized": "Ongar", "fullname": "Ongar", "fullnamelocalized": "", "latitude": "53.3919180556", "longitude": "-6.4382011111", "operators": [{"name": "bac", "operatortype": 1, "routes": ["39"]}]}, {"stopid": "7048", "displaystopid": "7048", "shortname": "Ongar", "shortnamelocalized": "Ongar", "fullname": "Ongar", "fullnamelocalized": "", "latitude": "53.3930111111", "longitude": "-6.44268", "operators": [{"name": "bac", "operatortype": 1, "routes": ["39"]}]}, {"stopid": "7699", "displaystopid": "7699", "shortname": "Ongar", "shortnamelocalized": "", "fullname": "Ongar", "fullnamelocalized": "", "latitude": "53.3949719444", "longitude": "-6.4443219444", "operators": [{"name": "bac", "operatortype": 1, "routes": ["39"]}]}, {"stopid": "7159", "displaystopid": "7159", "shortname": "Ongar", "shortnamelocalized": "Ongar", "fullname": "Ongar", "fullnamelocalized": "", "latitude": "53.3965988889", "longitude": "-6.4427338889", "operators": [{"name": "bac", "operatortype": 1, "routes": ["39"]}]}, {"stopid": "7388", "displaystopid": "7388", "shortname": "Ongar", "shortnamelocalized": "Ongar", "fullname": "Ongar", "fullnamelocalized": "", "latitude": "53.3979830556", "longitude": "-6.4423388889", "operators": [{"name": "bac", "operatortype": 1, "routes": ["39"]}]}, {"stopid": "7017", "displaystopid": "7017", "shortname": "Ongar Road", "shortnamelocalized": "B\u00c3\u00b3thar Ongar", "fullname": "Ongar Road", "fullnamelocalized": "", "latitude": "53.4016230556", "longitude": "-6.4352688889", "operators": [{"name": "bac", "operatortype": 1, "routes": ["39"]}]}, {"stopid": "7018", "displaystopid": "7018", "shortname": "Ongar Road", "shortnamelocalized": "B\u00c3\u00b3thar Ongar", "fullname": "Ongar Road", "fullnamelocalized": "", "latitude": "53.398805", "longitude": "-6.4315530556", "operators": [{"name": "bac", "operatortype": 1, "routes": ["39"]}]}, {"stopid": "7030", "displaystopid": "7030", "shortname": "Ongar Road", "shortnamelocalized": "B\u00c3\u00b3thar Ongar", "fullname": "Ongar Road", "fullnamelocalized": "", "latitude": "53.395895", "longitude": "-6.4291688889", "operators": [{"name": "bac", "operatortype": 1, "routes": ["39"]}]}, {"stopid": "7021", "displaystopid": "7021", "shortname": "Ongar Road", "shortnamelocalized": "B\u00c3\u00b3thar Ongar", "fullname": "Ongar Road", "fullnamelocalized": "", "latitude": "53.3940519444", "longitude": "-6.4310780556", "operators": [{"name": "bac", "operatortype": 1, "routes": ["39"]}]}, {"stopid": "7163", "displaystopid": "7163", "shortname": "Hansfield Road", "shortnamelocalized": "B\u00c3\u00b3thar Ph\u00c3\u00a1irc Hans", "fullname": "Hansfield Road", "fullnamelocalized": "", "latitude": "53.3890211111", "longitude": "-6.4304519444", "operators": [{"name": "bac", "operatortype": 1, "routes": ["39"]}]}, {"stopid": "1893", "displaystopid": "1893", "shortname": "Clonsilla", "shortnamelocalized": "Cluain Saileach", "fullname": "Clonsilla", "fullnamelocalized": "", "latitude": "53.386935", "longitude": "-6.4286288889", "operators": [{"name": "bac", "operatortype": 1, "routes": ["39"]}]}, {"stopid": "1894", "displaystopid": "1894", "shortname": "Clonsilla Rd", "shortnamelocalized": "Br Chluain Saileach", "fullname": "Clonsilla Rd", "fullnamelocalized": "", "latitude": "53.3835611111", "longitude": "-6.4234238889", "operators": [{"name": "bac", "operatortype": 1, "routes": ["39"]}]}, {"stopid": "1912", "displaystopid": "1912", "shortname": "Clonsilla Rd", "shortnamelocalized": "Br Chluain Saileach", "fullname": "Clonsilla Rd", "fullnamelocalized": "", "latitude": "53.3836697222", "longitude": "-6.4205461111", "operators": [{"name": "bac", "operatortype": 1, "routes": ["39"]}]}, {"stopid": "1895", "displaystopid": "1895", "shortname": "Clonsilla Rd", "shortnamelocalized": "Br Chluain Saileach", "fullname": "Clonsilla Rd", "fullnamelocalized": "", "latitude": "53.3835261111", "longitude": "-6.4171541667", "operators": [{"name": "bac", "operatortype": 1, "routes": ["39"]}]}, {"stopid": "1896", "displaystopid": "1896", "shortname": "Clonsilla Rd", "shortnamelocalized": "Br Chluain Saileach", "fullname": "Clonsilla Rd", "fullnamelocalized": "", "latitude": "53.3833555556", "longitude": "-6.4137930556", "operators": [{"name": "bac", "operatortype": 1, "routes": ["39"]}]}, {"stopid": "1897", "displaystopid": "1897", "shortname": "Clonsilla Rd", "shortnamelocalized": "Br Chluain Saileach", "fullname": "Clonsilla Rd", "fullnamelocalized": "", "latitude": "53.3831119444", "longitude": "-6.4103447222", "operators": [{"name": "bac", "operatortype": 1, "routes": ["39"]}]}, {"stopid": "6088", "displaystopid": "6088", "shortname": "Shelerin Road", "shortnamelocalized": "B\u00c3\u00b3thar Shelerin", "fullname": "Shelerin Road", "fullnamelocalized": "", "latitude": "53.3836430556", "longitude": "-6.409465", "operators": [{"name": "bac", "operatortype": 1, "routes": ["39"]}]}, {"stopid": "1898", "displaystopid": "1898", "shortname": "Shelerin Road", "shortnamelocalized": "B\u00c3\u00b3thar Shelerin", "fullname": "Shelerin Road", "fullnamelocalized": "", "latitude": "53.3875988889", "longitude": "-6.4097511111", "operators": [{"name": "bac", "operatortype": 1, "routes": ["39"]}]}, {"stopid": "1858", "displaystopid": "1858", "shortname": "Hartstown Rd", "shortnamelocalized": "Br Bhaile an Hartai", "fullname": "Hartstown Rd", "fullnamelocalized": "", "latitude": "53.3908816667", "longitude": "-6.4106563889", "operators": [{"name": "bac", "operatortype": 1, "routes": ["39"]}]}, {"stopid": "1859", "displaystopid": "1859", "shortname": "Hartstown Rd", "shortnamelocalized": "Br Bhaile an Hartai", "fullname": "Hartstown Rd", "fullnamelocalized": "", "latitude": "53.3910358333", "longitude": "-6.4154922222", "operators": [{"name": "bac", "operatortype": 1, "routes": ["39"]}]}, {"stopid": "1860", "displaystopid": "1860", "shortname": "Hartstown Rd", "shortnamelocalized": "Br Bhaile an Hartai", "fullname": "Hartstown Rd", "fullnamelocalized": "", "latitude": "53.3932991667", "longitude": "-6.4187611111", "operators": [{"name": "bac", "operatortype": 1, "routes": ["39"]}]}, {"stopid": "4492", "displaystopid": "4492", "shortname": "Hartstown Rd", "shortnamelocalized": "Br Bhaile an Hartai", "fullname": "Hartstown Rd", "fullnamelocalized": "", "latitude": "53.3949983333", "longitude": "-6.4181266667", "operators": [{"name": "bac", "operatortype": 1, "routes": ["39"]}]}, {"stopid": "1861", "displaystopid": "1861", "shortname": "Hartstown Rd", "shortnamelocalized": "Br Bhaile an Hartai", "fullname": "Hartstown Rd", "fullnamelocalized": "", "latitude": "53.3967497222", "longitude": "-6.4166633333", "operators": [{"name": "bac", "operatortype": 1, "routes": ["39"]}]}, {"stopid": "1862", "displaystopid": "1862", "shortname": "Huntstown Way", "shortnamelocalized": "Sl\u00c3\u00ad Bhaile an Hunta", "fullname": "Huntstown Way", "fullnamelocalized": "", "latitude": "53.3986161111", "longitude": "-6.4150752778", "operators": [{"name": "bac", "operatortype": 1, "routes": ["39"]}]}, {"stopid": "1863", "displaystopid": "1863", "shortname": "Huntstown Way", "shortnamelocalized": "Sl\u00c3\u00ad Bhaile an Hunta", "fullname": "Huntstown Way", "fullnamelocalized": "", "latitude": "53.4006152778", "longitude": "-6.4133466667", "operators": [{"name": "bac", "operatortype": 1, "routes": ["39"]}]}, {"stopid": "1864", "displaystopid": "1864", "shortname": "Huntstown Way", "shortnamelocalized": "Sl\u00c3\u00ad Bhaile an Hunta", "fullname": "Huntstown Way", "fullnamelocalized": "", "latitude": "53.4018161111", "longitude": "-6.4103691667", "operators": [{"name": "bac", "operatortype": 1, "routes": ["39"]}]}, {"stopid": "1865", "displaystopid": "1865", "shortname": "Huntstown Way", "shortnamelocalized": "Sl\u00c3\u00ad Bhaile an Hunta", "fullname": "Huntstown Way", "fullnamelocalized": "", "latitude": "53.4010447222", "longitude": "-6.4064427778", "operators": [{"name": "bac", "operatortype": 1, "routes": ["39"]}]}, {"stopid": "1866", "displaystopid": "1866", "shortname": "Huntstown Way", "shortnamelocalized": "Sl\u00c3\u00ad Bhaile an Hunta", "fullname": "Huntstown Way", "fullnamelocalized": "", "latitude": "53.3998997222", "longitude": "-6.4028161111", "operators": [{"name": "bac", "operatortype": 1, "routes": ["39"]}]}, {"stopid": "1850", "displaystopid": "1850", "shortname": "Huntstown Rd", "shortnamelocalized": "Br Bhaile an Huntai", "fullname": "Huntstown Rd", "fullnamelocalized": "", "latitude": "53.3977475", "longitude": "-6.3991675", "operators": [{"name": "bac", "operatortype": 1, "routes": ["39"]}]}, {"stopid": "1867", "displaystopid": "1867", "shortname": "Blakestown Way", "shortnamelocalized": "Sl\u00c3\u00ad Bhaile an Bhl\u00c3\u00a1c", "fullname": "Blakestown Way", "fullnamelocalized": "", "latitude": "53.3958077778", "longitude": "-6.3999619444", "operators": [{"name": "bac", "operatortype": 1, "routes": ["39"]}]}, {"stopid": "4489", "displaystopid": "4489", "shortname": "Blakestown Way", "shortnamelocalized": "Sl\u00c3\u00ad Bhaile an Bhl\u00c3\u00a1c", "fullname": "Blakestown Way", "fullnamelocalized": "", "latitude": "53.3944158333", "longitude": "-6.3993677778", "operators": [{"name": "bac", "operatortype": 1, "routes": ["39"]}]}, {"stopid": "4747", "displaystopid": "4747", "shortname": "Blanchardstown", "shortnamelocalized": "Baile Bhlains\u00c3\u00a9ir", "fullname": "Blanchardstown", "fullnamelocalized": "", "latitude": "53.3943327778", "longitude": "-6.3918525", "operators": [{"name": "bac", "operatortype": 1, "routes": ["39"]}]}, {"stopid": "1882", "displaystopid": "1882", "shortname": "Blanchardstown Rd", "shortnamelocalized": "Br Bhaile Bhlains\u00c3\u00a9i", "fullname": "Blanchardstown Rd", "fullnamelocalized": "", "latitude": "53.3927725", "longitude": "-6.3988127778", "operators": [{"name": "bac", "operatortype": 1, "routes": ["39"]}]}, {"stopid": "7379", "displaystopid": "7379", "shortname": "Blanchardstown Rd", "shortnamelocalized": "Br Bhaile Bhlains\u00c3\u00a9i", "fullname": "Blanchardstown Rd", "fullnamelocalized": "", "latitude": "53.3897483333", "longitude": "-6.400505", "operators": [{"name": "bac", "operatortype": 1, "routes": ["39"]}]}, {"stopid": "4903", "displaystopid": "4903", "shortname": "Blanchardstown Rd", "shortnamelocalized": "Br Bhaile Bhlains\u00c3\u00a9i", "fullname": "Blanchardstown Rd", "fullnamelocalized": "", "latitude": "53.3866638889", "longitude": "-6.4017330556", "operators": [{"name": "bac", "operatortype": 1, "routes": ["39"]}]}, {"stopid": "1883", "displaystopid": "1883", "shortname": "Coolmine Estate", "shortnamelocalized": "East\u00c3\u00a1t Ch\u00c3\u00bail Mh\u00c3\u00adn", "fullname": "Coolmine Estate", "fullnamelocalized": "", "latitude": "53.385745", "longitude": "-6.3982047222", "operators": [{"name": "bac", "operatortype": 1, "routes": ["39"]}]}, {"stopid": "1884", "displaystopid": "1884", "shortname": "Coolmine Estate", "shortnamelocalized": "East\u00c3\u00a1t Ch\u00c3\u00bail Mh\u00c3\u00adn", "fullname": "Coolmine Estate", "fullnamelocalized": "", "latitude": "53.385535", "longitude": "-6.3959575", "operators": [{"name": "bac", "operatortype": 1, "routes": ["39"]}]}, {"stopid": "1902", "displaystopid": "1902", "shortname": "Clonsilla Rd", "shortnamelocalized": "Br Chluain Saileach", "fullname": "Clonsilla Rd", "fullnamelocalized": "", "latitude": "53.3835372222", "longitude": "-6.3924397222", "operators": [{"name": "bac", "operatortype": 1, "routes": ["39"]}]}, {"stopid": "1903", "displaystopid": "1903", "shortname": "Clonsilla Rd", "shortnamelocalized": "Br Chluain Saileach", "fullname": "Clonsilla Rd", "fullnamelocalized": "", "latitude": "53.38525", "longitude": "-6.3874744444", "operators": [{"name": "bac", "operatortype": 1, "routes": ["39"]}]}, {"stopid": "1904", "displaystopid": "1904", "shortname": "Clonsilla Rd", "shortnamelocalized": "Br Chluain Saileach", "fullname": "Clonsilla Rd", "fullnamelocalized": "", "latitude": "53.3878416667", "longitude": "-6.3830616667", "operators": [{"name": "bac", "operatortype": 1, "routes": ["39"]}]}, {"stopid": "1840", "displaystopid": "1840", "shortname": "Blanchardstown Vill", "shortnamelocalized": "Sr\u00c3\u00a1idbhaile Bhaile ", "fullname": "Blanchardstown Village", "fullnamelocalized": "", "latitude": "53.3879611111", "longitude": "-6.3792833333", "operators": [{"name": "bac", "operatortype": 1, "routes": ["39"]}]}, {"stopid": "1841", "displaystopid": "1841", "shortname": "Blanchardstown Vill", "shortnamelocalized": "Baile Bhlains\u00c3\u00a9ir", "fullname": "Blanchardstown Village", "fullnamelocalized": "", "latitude": "53.3861213889", "longitude": "-6.3755197222", "operators": [{"name": "bac", "operatortype": 1, "routes": ["39"]}]}, {"stopid": "1842", "displaystopid": "1842", "shortname": "Old Navan Rd", "shortnamelocalized": "Sean Br na hUaimhe", "fullname": "Old Navan Rd", "fullnamelocalized": "", "latitude": "53.3849677778", "longitude": "-6.3713391667", "operators": [{"name": "bac", "operatortype": 1, "routes": ["39"]}]}, {"stopid": "7374", "displaystopid": "7374", "shortname": "Blanchardstown Bypa", "shortnamelocalized": "Seachr\u00c3\u00b3d Bhaile Bhl", "fullname": "Blanchardstown Bypass", "fullnamelocalized": "", "latitude": "53.3839858333", "longitude": "-6.3652433333", "operators": [{"name": "bac", "operatortype": 1, "routes": ["39"]}]}, {"stopid": "1845", "displaystopid": "1845", "shortname": "Navan Road", "shortnamelocalized": "B\u00c3\u00b3thar na hUaimhe", "fullname": "Navan Road", "fullnamelocalized": "", "latitude": "53.37902", "longitude": "-6.3526988889", "operators": [{"name": "bac", "operatortype": 1, "routes": ["39"]}]}, {"stopid": "7166", "displaystopid": "7166", "shortname": "Navan Road", "shortnamelocalized": "B\u00c3\u00b3thar na hUaimhe", "fullname": "Navan Road", "fullnamelocalized": "", "latitude": "53.377095", "longitude": "-6.345775", "operators": [{"name": "bac", "operatortype": 1, "routes": ["39"]}]}, {"stopid": "1847", "displaystopid": "1847", "shortname": "Navan Road", "shortnamelocalized": "B\u00c3\u00b3thar na hUaimhe", "fullname": "Navan Road", "fullnamelocalized": "", "latitude": "53.3729", "longitude": "-6.3339461111", "operators": [{"name": "bac", "operatortype": 1, "routes": ["39"]}]}, {"stopid": "1696", "displaystopid": "1696", "shortname": "Navan Road", "shortnamelocalized": "B\u00c3\u00b3thar na hUaimhe", "fullname": "Navan Road", "fullnamelocalized": "", "latitude": "53.3715311111", "longitude": "-6.32981", "operators": [{"name": "bac", "operatortype": 1, "routes": ["39"]}]}, {"stopid": "1697", "displaystopid": "1697", "shortname": "Navan Road", "shortnamelocalized": "B\u00c3\u00b3thar na hUaimhe", "fullname": "Navan Road", "fullnamelocalized": "", "latitude": "53.3707930556", "longitude": "-6.3276480556", "operators": [{"name": "bac", "operatortype": 1, "routes": ["39"]}]}, {"stopid": "1698", "displaystopid": "1698", "shortname": "Navan Road", "shortnamelocalized": "B\u00c3\u00b3thar na hUaimhe", "fullname": "Navan Road", "fullnamelocalized": "", "latitude": "53.3695669444", "longitude": "-6.3236988889", "operators": [{"name": "bac", "operatortype": 1, "routes": ["39"]}]}, {"stopid": "1699", "displaystopid": "1699", "shortname": "Navan Road", "shortnamelocalized": "B\u00c3\u00b3thar na hUaimhe", "fullname": "Navan Road", "fullnamelocalized": "", "latitude": "53.3687388889", "longitude": "-6.3212888889", "operators": [{"name": "bac", "operatortype": 1, "routes": ["39"]}]}, {"stopid": "1700", "displaystopid": "1700", "shortname": "Navan Road", "shortnamelocalized": "B\u00c3\u00b3thar na hUaimhe", "fullname": "Navan Road", "fullnamelocalized": "", "latitude": "53.3676988889", "longitude": "-6.3174288889", "operators": [{"name": "bac", "operatortype": 1, "routes": ["39"]}]}, {"stopid": "1701", "displaystopid": "1701", "shortname": "Navan Road", "shortnamelocalized": "B\u00c3\u00b3thar na hUaimhe", "fullname": "Navan Road", "fullnamelocalized": "", "latitude": "53.3665761111", "longitude": "-6.3130588889", "operators": [{"name": "bac", "operatortype": 1, "routes": ["39"]}]}, {"stopid": "1702", "displaystopid": "1702", "shortname": "Navan Road", "shortnamelocalized": "B\u00c3\u00b3thar na hUaimhe", "fullname": "Navan Road", "fullnamelocalized": "", "latitude": "53.3656188889", "longitude": "-6.3102088889", "operators": [{"name": "bac", "operatortype": 1, "routes": ["39"]}]}, {"stopid": "1703", "displaystopid": "1703", "shortname": "Navan Road", "shortnamelocalized": "B\u00c3\u00b3thar na hUaimhe", "fullname": "Navan Road", "fullnamelocalized": "", "latitude": "53.3647169444", "longitude": "-6.3073380556", "operators": [{"name": "bac", "operatortype": 1, "routes": ["39"]}]}, {"stopid": "1905", "displaystopid": "1905", "shortname": "Navan Road", "shortnamelocalized": "B\u00c3\u00b3thar na hUaimhe", "fullname": "Navan Road", "fullnamelocalized": "", "latitude": "53.3632780556", "longitude": "-6.3030061111", "operators": [{"name": "bac", "operatortype": 1, "routes": ["39"]}]}, {"stopid": "1906", "displaystopid": "1906", "shortname": "Old Cabra Rd", "shortnamelocalized": "Snbr na Cabra\u00c3\u00ad", "fullname": "Old Cabra Rd", "fullnamelocalized": "", "latitude": "53.3612", "longitude": "-6.2970680556", "operators": [{"name": "bac", "operatortype": 1, "routes": ["39"]}]}, {"stopid": "1907", "displaystopid": "1907", "shortname": "Old Cabra Rd", "shortnamelocalized": "Snbr na Cabra\u00c3\u00ad", "fullname": "Old Cabra Rd", "fullnamelocalized": "", "latitude": "53.3599019444", "longitude": "-6.2938011111", "operators": [{"name": "bac", "operatortype": 1, "routes": ["39"]}]}, {"stopid": "1908", "displaystopid": "1908", "shortname": "Old Cabra Rd", "shortnamelocalized": "Snbr na Cabra\u00c3\u00ad", "fullname": "Old Cabra Rd", "fullnamelocalized": "", "latitude": "53.3586838889", "longitude": "-6.2912480556", "operators": [{"name": "bac", "operatortype": 1, "routes": ["39"]}]}, {"stopid": "1909", "displaystopid": "1909", "shortname": "Prussia Street", "shortnamelocalized": "Sr\u00c3\u00a1id na Pr\u00c3\u00baise", "fullname": "Prussia Street", "fullnamelocalized": "", "latitude": "53.3568880556", "longitude": "-6.2885069444", "operators": [{"name": "bac", "operatortype": 1, "routes": ["39"]}]}, {"stopid": "1713", "displaystopid": "1713", "shortname": "Manor Street", "shortnamelocalized": "Sr\u00c3\u00a1id an Mhain\u00c3\u00a9ir", "fullname": "Manor Street", "fullnamelocalized": "", "latitude": "53.3519061111", "longitude": "-6.2833088889", "operators": [{"name": "bac", "operatortype": 1, "routes": ["39"]}]}, {"stopid": "1714", "displaystopid": "1714", "shortname": "Stoneybatter", "shortnamelocalized": "B\u00c3\u00b3thar na gCloch", "fullname": "Stoneybatter", "fullnamelocalized": "", "latitude": "53.3506361111", "longitude": "-6.2818719444", "operators": [{"name": "bac", "operatortype": 1, "routes": ["39"]}]}, {"stopid": "1715", "displaystopid": "1715", "shortname": "Blackhall Place", "shortnamelocalized": "Pl\u00c3\u00a1s Blackhall", "fullname": "Blackhall Place", "fullnamelocalized": "", "latitude": "53.3477111111", "longitude": "-6.2821780556", "operators": [{"name": "bac", "operatortype": 1, "routes": ["39"]}]}, {"stopid": "7453", "displaystopid": "7453", "shortname": "Arran Quay", "shortnamelocalized": "C\u00c3\u00a9 \u00c3\u0081rann", "fullname": "Arran Quay", "fullnamelocalized": "", "latitude": "53.3463380556", "longitude": "-6.2783780556", "operators": [{"name": "bac", "operatortype": 1, "routes": ["39"]}]}, {"stopid": "1478", "displaystopid": "1478", "shortname": "Inns Quay", "shortnamelocalized": "C\u00c3\u00a9 na n\u00c3\u201csta\u00c3\u00ad", "fullname": "Inns Quay", "fullnamelocalized": "", "latitude": "53.3456480556", "longitude": "-6.272935", "operators": [{"name": "bac", "operatortype": 1, "routes": ["39"]}]}, {"stopid": "1479", "displaystopid": "1479", "shortname": "Ormond Quay", "shortnamelocalized": "C\u00c3\u00a9 Urumhan", "fullname": "Ormond Quay", "fullnamelocalized": "", "latitude": "53.3459130556", "longitude": "-6.2692330556", "operators": [{"name": "bac", "operatortype": 1, "routes": ["39"]}]}, {"stopid": "315", "displaystopid": "315", "shortname": "Bachelors Walk", "shortnamelocalized": "Si\u00c3\u00bal\u00c3\u00a1n Bhaitsil\u00c3\u00a9ir", "fullname": "Bachelors Walk", "fullnamelocalized": "", "latitude": "53.3469938889", "longitude": "-6.2618161111", "operators": [{"name": "bac", "operatortype": 1, "routes": ["39"]}]}]}, {"operator": "bac", "origin": "Ongar", "originlocalized": "Ongar", "destination": "Burlington Rd", "destinationlocalized": "", "lastupdated": "27/06/2016 08:56:14", "stops": [{"stopid": "1699", "displaystopid": "1699", "shortname": "Navan Road", "shortnamelocalized": "B\u00c3\u00b3thar na hUaimhe", "fullname": "Navan Road", "fullnamelocalized": "", "latitude": "53.3687388889", "longitude": "-6.3212888889", "operators": [{"name": "bac", "operatortype": 1, "routes": ["39"]}]}, {"stopid": "1700", "displaystopid": "1700", "shortname": "Navan Road", "shortnamelocalized": "B\u00c3\u00b3thar na hUaimhe", "fullname": "Navan Road", "fullnamelocalized": "", "latitude": "53.3676988889", "longitude": "-6.3174288889", "operators": [{"name": "bac", "operatortype": 1, "routes": ["39"]}]}, {"stopid": "1701", "displaystopid": "1701", "shortname": "Navan Road", "shortnamelocalized": "B\u00c3\u00b3thar na hUaimhe", "fullname": "Navan Road", "fullnamelocalized": "", "latitude": "53.3665761111", "longitude": "-6.3130588889", "operators": [{"name": "bac", "operatortype": 1, "routes": ["39"]}]}, {"stopid": "1702", "displaystopid": "1702", "shortname": "Navan Road", "shortnamelocalized": "B\u00c3\u00b3thar na hUaimhe", "fullname": "Navan Road", "fullnamelocalized": "", "latitude": "53.3656188889", "longitude": "-6.3102088889", "operators": [{"name": "bac", "operatortype": 1, "routes": ["39"]}]}, {"stopid": "1703", "displaystopid": "1703", "shortname": "Navan Road", "shortnamelocalized": "B\u00c3\u00b3thar na hUaimhe", "fullname": "Navan Road", "fullnamelocalized": "", "latitude": "53.3647169444", "longitude": "-6.3073380556", "operators": [{"name": "bac", "operatortype": 1, "routes": ["39"]}]}, {"stopid": "1713", "displaystopid": "1713", "shortname": "Manor Street", "shortnamelocalized": "Sr\u00c3\u00a1id an Mhain\u00c3\u00a9ir", "fullname": "Manor Street", "fullnamelocalized": "", "latitude": "53.3519061111", "longitude": "-6.2833088889", "operators": [{"name": "bac", "operatortype": 1, "routes": ["39"]}]}, {"stopid": "1714", "displaystopid": "1714", "shortname": "Stoneybatter", "shortnamelocalized": "B\u00c3\u00b3thar na gCloch", "fullname": "Stoneybatter", "fullnamelocalized": "", "latitude": "53.3506361111", "longitude": "-6.2818719444", "operators": [{"name": "bac", "operatortype": 1, "routes": ["39"]}]}, {"stopid": "1715", "displaystopid": "1715", "shortname": "Blackhall Place", "shortnamelocalized": "Pl\u00c3\u00a1s Blackhall", "fullname": "Blackhall Place", "fullnamelocalized": "", "latitude": "53.3477111111", "longitude": "-6.2821780556", "operators": [{"name": "bac", "operatortype": 1, "routes": ["39"]}]}, {"stopid": "1883", "displaystopid": "1883", "shortname": "Coolmine Estate", "shortnamelocalized": "East\u00c3\u00a1t Ch\u00c3\u00bail Mh\u00c3\u00adn", "fullname": "Coolmine Estate", "fullnamelocalized": "", "latitude": "53.385745", "longitude": "-6.3982047222", "operators": [{"name": "bac", "operatortype": 1, "routes": ["39"]}]}, {"stopid": "1884", "displaystopid": "1884", "shortname": "Coolmine Estate", "shortnamelocalized": "East\u00c3\u00a1t Ch\u00c3\u00bail Mh\u00c3\u00adn", "fullname": "Coolmine Estate", "fullnamelocalized": "", "latitude": "53.385535", "longitude": "-6.3959575", "operators": [{"name": "bac", "operatortype": 1, "routes": ["39"]}]}, {"stopid": "1696", "displaystopid": "1696", "shortname": "Navan Road", "shortnamelocalized": "B\u00c3\u00b3thar na hUaimhe", "fullname": "Navan Road", "fullnamelocalized": "", "latitude": "53.3715311111", "longitude": "-6.32981", "operators": [{"name": "bac", "operatortype": 1, "routes": ["39"]}]}, {"stopid": "1697", "displaystopid": "1697", "shortname": "Navan Road", "shortnamelocalized": "B\u00c3\u00b3thar na hUaimhe", "fullname": "Navan Road", "fullnamelocalized": "", "latitude": "53.3707930556", "longitude": "-6.3276480556", "operators": [{"name": "bac", "operatortype": 1, "routes": ["39"]}]}, {"stopid": "1698", "displaystopid": "1698", "shortname": "Navan Road", "shortnamelocalized": "B\u00c3\u00b3thar na hUaimhe", "fullname": "Navan Road", "fullnamelocalized": "", "latitude": "53.3695669444", "longitude": "-6.3236988889", "operators": [{"name": "bac", "operatortype": 1, "routes": ["39"]}]}, {"stopid": "1850", "displaystopid": "1850", "shortname": "Huntstown Rd", "shortnamelocalized": "Br Bhaile an Huntai", "fullname": "Huntstown Rd", "fullnamelocalized": "", "latitude": "53.3977475", "longitude": "-6.3991675", "operators": [{"name": "bac", "operatortype": 1, "routes": ["39"]}]}, {"stopid": "1858", "displaystopid": "1858", "shortname": "Hartstown Rd", "shortnamelocalized": "Br Bhaile an Hartai", "fullname": "Hartstown Rd", "fullnamelocalized": "", "latitude": "53.3908816667", "longitude": "-6.4106563889", "operators": [{"name": "bac", "operatortype": 1, "routes": ["39"]}]}, {"stopid": "1859", "displaystopid": "1859", "shortname": "Hartstown Rd", "shortnamelocalized": "Br Bhaile an Hartai", "fullname": "Hartstown Rd", "fullnamelocalized": "", "latitude": "53.3910358333", "longitude": "-6.4154922222", "operators": [{"name": "bac", "operatortype": 1, "routes": ["39"]}]}, {"stopid": "1893", "displaystopid": "1893", "shortname": "Clonsilla", "shortnamelocalized": "Cluain Saileach", "fullname": "Clonsilla", "fullnamelocalized": "", "latitude": "53.386935", "longitude": "-6.4286288889", "operators": [{"name": "bac", "operatortype": 1, "routes": ["39"]}]}, {"stopid": "1894", "displaystopid": "1894", "shortname": "Clonsilla Rd", "shortnamelocalized": "Br Chluain Saileach", "fullname": "Clonsilla Rd", "fullnamelocalized": "", "latitude": "53.3835611111", "longitude": "-6.4234238889", "operators": [{"name": "bac", "operatortype": 1, "routes": ["39"]}]}, {"stopid": "1895", "displaystopid": "1895", "shortname": "Clonsilla Rd", "shortnamelocalized": "Br Chluain Saileach", "fullname": "Clonsilla Rd", "fullnamelocalized": "", "latitude": "53.3835261111", "longitude": "-6.4171541667", "operators": [{"name": "bac", "operatortype": 1, "routes": ["39"]}]}, {"stopid": "1896", "displaystopid": "1896", "shortname": "Clonsilla Rd", "shortnamelocalized": "Br Chluain Saileach", "fullname": "Clonsilla Rd", "fullnamelocalized": "", "latitude": "53.3833555556", "longitude": "-6.4137930556", "operators": [{"name": "bac", "operatortype": 1, "routes": ["39"]}]}, {"stopid": "1897", "displaystopid": "1897", "shortname": "Clonsilla Rd", "shortnamelocalized": "Br Chluain Saileach", "fullname": "Clonsilla Rd", "fullnamelocalized": "", "latitude": "53.3831119444", "longitude": "-6.4103447222", "operators": [{"name": "bac", "operatortype": 1, "routes": ["39"]}]}, {"stopid": "1898", "displaystopid": "1898", "shortname": "Shelerin Road", "shortnamelocalized": "B\u00c3\u00b3thar Shelerin", "fullname": "Shelerin Road", "fullnamelocalized": "", "latitude": "53.3875988889", "longitude": "-6.4097511111", "operators": [{"name": "bac", "operatortype": 1, "routes": ["39"]}]}, {"stopid": "1860", "displaystopid": "1860", "shortname": "Hartstown Rd", "shortnamelocalized": "Br Bhaile an Hartai", "fullname": "Hartstown Rd", "fullnamelocalized": "", "latitude": "53.3932991667", "longitude": "-6.4187611111", "operators": [{"name": "bac", "operatortype": 1, "routes": ["39"]}]}, {"stopid": "1861", "displaystopid": "1861", "shortname": "Hartstown Rd", "shortnamelocalized": "Br Bhaile an Hartai", "fullname": "Hartstown Rd", "fullnamelocalized": "", "latitude": "53.3967497222", "longitude": "-6.4166633333", "operators": [{"name": "bac", "operatortype": 1, "routes": ["39"]}]}, {"stopid": "1862", "displaystopid": "1862", "shortname": "Huntstown Way", "shortnamelocalized": "Sl\u00c3\u00ad Bhaile an Hunta", "fullname": "Huntstown Way", "fullnamelocalized": "", "latitude": "53.3986161111", "longitude": "-6.4150752778", "operators": [{"name": "bac", "operatortype": 1, "routes": ["39"]}]}, {"stopid": "1863", "displaystopid": "1863", "shortname": "Huntstown Way", "shortnamelocalized": "Sl\u00c3\u00ad Bhaile an Hunta", "fullname": "Huntstown Way", "fullnamelocalized": "", "latitude": "53.4006152778", "longitude": "-6.4133466667", "operators": [{"name": "bac", "operatortype": 1, "routes": ["39"]}]}, {"stopid": "1864", "displaystopid": "1864", "shortname": "Huntstown Way", "shortnamelocalized": "Sl\u00c3\u00ad Bhaile an Hunta", "fullname": "Huntstown Way", "fullnamelocalized": "", "latitude": "53.4018161111", "longitude": "-6.4103691667", "operators": [{"name": "bac", "operatortype": 1, "routes": ["39"]}]}, {"stopid": "1865", "displaystopid": "1865", "shortname": "Huntstown Way", "shortnamelocalized": "Sl\u00c3\u00ad Bhaile an Hunta", "fullname": "Huntstown Way", "fullnamelocalized": "", "latitude": "53.4010447222", "longitude": "-6.4064427778", "operators": [{"name": "bac", "operatortype": 1, "routes": ["39"]}]}, {"stopid": "1902", "displaystopid": "1902", "shortname": "Clonsilla Rd", "shortnamelocalized": "Br Chluain Saileach", "fullname": "Clonsilla Rd", "fullnamelocalized": "", "latitude": "53.3835372222", "longitude": "-6.3924397222", "operators": [{"name": "bac", "operatortype": 1, "routes": ["39"]}]}, {"stopid": "1903", "displaystopid": "1903", "shortname": "Clonsilla Rd", "shortnamelocalized": "Br Chluain Saileach", "fullname": "Clonsilla Rd", "fullnamelocalized": "", "latitude": "53.38525", "longitude": "-6.3874744444", "operators": [{"name": "bac", "operatortype": 1, "routes": ["39"]}]}, {"stopid": "1904", "displaystopid": "1904", "shortname": "Clonsilla Rd", "shortnamelocalized": "Br Chluain Saileach", "fullname": "Clonsilla Rd", "fullnamelocalized": "", "latitude": "53.3878416667", "longitude": "-6.3830616667", "operators": [{"name": "bac", "operatortype": 1, "routes": ["39"]}]}, {"stopid": "1905", "displaystopid": "1905", "shortname": "Navan Road", "shortnamelocalized": "B\u00c3\u00b3thar na hUaimhe", "fullname": "Navan Road", "fullnamelocalized": "", "latitude": "53.3632780556", "longitude": "-6.3030061111", "operators": [{"name": "bac", "operatortype": 1, "routes": ["39"]}]}, {"stopid": "1906", "displaystopid": "1906", "shortname": "Old Cabra Rd", "shortnamelocalized": "Snbr na Cabra\u00c3\u00ad", "fullname": "Old Cabra Rd", "fullnamelocalized": "", "latitude": "53.3612", "longitude": "-6.2970680556", "operators": [{"name": "bac", "operatortype": 1, "routes": ["39"]}]}, {"stopid": "1907", "displaystopid": "1907", "shortname": "Old Cabra Rd", "shortnamelocalized": "Snbr na Cabra\u00c3\u00ad", "fullname": "Old Cabra Rd", "fullnamelocalized": "", "latitude": "53.3599019444", "longitude": "-6.2938011111", "operators": [{"name": "bac", "operatortype": 1, "routes": ["39"]}]}, {"stopid": "1908", "displaystopid": "1908", "shortname": "Old Cabra Rd", "shortnamelocalized": "Snbr na Cabra\u00c3\u00ad", "fullname": "Old Cabra Rd", "fullnamelocalized": "", "latitude": "53.3586838889", "longitude": "-6.2912480556", "operators": [{"name": "bac", "operatortype": 1, "routes": ["39"]}]}, {"stopid": "1909", "displaystopid": "1909", "shortname": "Prussia Street", "shortnamelocalized": "Sr\u00c3\u00a1id na Pr\u00c3\u00baise", "fullname": "Prussia Street", "fullnamelocalized": "", "latitude": "53.3568880556", "longitude": "-6.2885069444", "operators": [{"name": "bac", "operatortype": 1, "routes": ["39"]}]}, {"stopid": "1912", "displaystopid": "1912", "shortname": "Clonsilla Rd", "shortnamelocalized": "Br Chluain Saileach", "fullname": "Clonsilla Rd", "fullnamelocalized": "", "latitude": "53.3836697222", "longitude": "-6.4205461111", "operators": [{"name": "bac", "operatortype": 1, "routes": ["39"]}]}, {"stopid": "313", "displaystopid": "313", "shortname": "Bachelors Walk", "shortnamelocalized": "Si\u00fal\u00e1n Bhaitsil\u00e9ir", "fullname": "Liffey Street", "fullnamelocalized": "", "latitude": "53.347385", "longitude": "-6.260161", "operators": [{"name": "bac", "operatortype": 1, "routes": ["39"]}]}, {"stopid": "404", "displaystopid": "404", "shortname": "Nassau Street", "shortnamelocalized": "Sr\u00c3\u00a1id Nassau", "fullname": "Nassau Street", "fullnamelocalized": "", "latitude": "53.3426480556", "longitude": "-6.2564030556", "operators": [{"name": "bac", "operatortype": 1, "routes": ["39"]}]}, {"stopid": "4489", "displaystopid": "4489", "shortname": "Blakestown Way", "shortnamelocalized": "Sl\u00c3\u00ad Bhaile an Bhl\u00c3\u00a1c", "fullname": "Blakestown Way", "fullnamelocalized": "", "latitude": "53.3944158333", "longitude": "-6.3993677778", "operators": [{"name": "bac", "operatortype": 1, "routes": ["39"]}]}, {"stopid": "1866", "displaystopid": "1866", "shortname": "Huntstown Way", "shortnamelocalized": "Sl\u00c3\u00ad Bhaile an Hunta", "fullname": "Huntstown Way", "fullnamelocalized": "", "latitude": "53.3998997222", "longitude": "-6.4028161111", "operators": [{"name": "bac", "operatortype": 1, "routes": ["39"]}]}, {"stopid": "1867", "displaystopid": "1867", "shortname": "Blakestown Way", "shortnamelocalized": "Sl\u00c3\u00ad Bhaile an Bhl\u00c3\u00a1c", "fullname": "Blakestown Way", "fullnamelocalized": "", "latitude": "53.3958077778", "longitude": "-6.3999619444", "operators": [{"name": "bac", "operatortype": 1, "routes": ["39"]}]}, {"stopid": "1882", "displaystopid": "1882", "shortname": "Blanchardstown Rd", "shortnamelocalized": "Br Bhaile Bhlains\u00c3\u00a9i", "fullname": "Blanchardstown Rd", "fullnamelocalized": "", "latitude": "53.3927725", "longitude": "-6.3988127778", "operators": [{"name": "bac", "operatortype": 1, "routes": ["39"]}]}, {"stopid": "315", "displaystopid": "315", "shortname": "Bachelors Walk", "shortnamelocalized": "Si\u00c3\u00bal\u00c3\u00a1n Bhaitsil\u00c3\u00a9ir", "fullname": "Bachelors Walk", "fullnamelocalized": "", "latitude": "53.3469938889", "longitude": "-6.2618161111", "operators": [{"name": "bac", "operatortype": 1, "routes": ["39"]}]}, {"stopid": "349", "displaystopid": "349", "shortname": "College Street", "shortnamelocalized": "Sr\u00e1id an Chol\u00e1iste", "fullname": "Trinity College", "fullnamelocalized": "", "latitude": "53.344585", "longitude": "-6.259345", "operators": [{"name": "bac", "operatortype": 1, "routes": ["39"]}]}, {"stopid": "4747", "displaystopid": "4747", "shortname": "Blanchardstown", "shortnamelocalized": "Baile Bhlains\u00c3\u00a9ir", "fullname": "Blanchardstown", "fullnamelocalized": "", "latitude": "53.3943327778", "longitude": "-6.3918525", "operators": [{"name": "bac", "operatortype": 1, "routes": ["39"]}]}, {"stopid": "6088", "displaystopid": "6088", "shortname": "Shelerin Road", "shortnamelocalized": "B\u00c3\u00b3thar Shelerin", "fullname": "Shelerin Road", "fullnamelocalized": "", "latitude": "53.3836430556", "longitude": "-6.409465", "operators": [{"name": "bac", "operatortype": 1, "routes": ["39"]}]}, {"stopid": "1478", "displaystopid": "1478", "shortname": "Inns Quay", "shortnamelocalized": "C\u00c3\u00a9 na n\u00c3\u201csta\u00c3\u00ad", "fullname": "Inns Quay", "fullnamelocalized": "", "latitude": "53.3456480556", "longitude": "-6.272935", "operators": [{"name": "bac", "operatortype": 1, "routes": ["39"]}]}, {"stopid": "1479", "displaystopid": "1479", "shortname": "Ormond Quay", "shortnamelocalized": "C\u00c3\u00a9 Urumhan", "fullname": "Ormond Quay", "fullnamelocalized": "", "latitude": "53.3459130556", "longitude": "-6.2692330556", "operators": [{"name": "bac", "operatortype": 1, "routes": ["39"]}]}, {"stopid": "335", "displaystopid": "335", "shortname": "D'Olier Street", "shortnamelocalized": "Sr\u00c3\u00a1id D'Olier", "fullname": "D'Olier Street", "fullnamelocalized": "", "latitude": "53.3463638889", "longitude": "-6.2578861111", "operators": [{"name": "bac", "operatortype": 1, "routes": ["39"]}]}, {"stopid": "7017", "displaystopid": "7017", "shortname": "Ongar Road", "shortnamelocalized": "B\u00c3\u00b3thar Ongar", "fullname": "Ongar Road", "fullnamelocalized": "", "latitude": "53.4016230556", "longitude": "-6.4352688889", "operators": [{"name": "bac", "operatortype": 1, "routes": ["39"]}]}, {"stopid": "7018", "displaystopid": "7018", "shortname": "Ongar Road", "shortnamelocalized": "B\u00c3\u00b3thar Ongar", "fullname": "Ongar Road", "fullnamelocalized": "", "latitude": "53.398805", "longitude": "-6.4315530556", "operators": [{"name": "bac", "operatortype": 1, "routes": ["39"]}]}, {"stopid": "1840", "displaystopid": "1840", "shortname": "Blanchardstown Vill", "shortnamelocalized": "Sr\u00c3\u00a1idbhaile Bhaile ", "fullname": "Blanchardstown Village", "fullnamelocalized": "", "latitude": "53.3879611111", "longitude": "-6.3792833333", "operators": [{"name": "bac", "operatortype": 1, "routes": ["39"]}]}, {"stopid": "1841", "displaystopid": "1841", "shortname": "Blanchardstown Vill", "shortnamelocalized": "Baile Bhlains\u00c3\u00a9ir", "fullname": "Blanchardstown Village", "fullnamelocalized": "", "latitude": "53.3861213889", "longitude": "-6.3755197222", "operators": [{"name": "bac", "operatortype": 1, "routes": ["39"]}]}, {"stopid": "1842", "displaystopid": "1842", "shortname": "Old Navan Rd", "shortnamelocalized": "Sean Br na hUaimhe", "fullname": "Old Navan Rd", "fullnamelocalized": "", "latitude": "53.3849677778", "longitude": "-6.3713391667", "operators": [{"name": "bac", "operatortype": 1, "routes": ["39"]}]}, {"stopid": "1845", "displaystopid": "1845", "shortname": "Navan Road", "shortnamelocalized": "B\u00c3\u00b3thar na hUaimhe", "fullname": "Navan Road", "fullnamelocalized": "", "latitude": "53.37902", "longitude": "-6.3526988889", "operators": [{"name": "bac", "operatortype": 1, "routes": ["39"]}]}, {"stopid": "1847", "displaystopid": "1847", "shortname": "Navan Road", "shortnamelocalized": "B\u00c3\u00b3thar na hUaimhe", "fullname": "Navan Road", "fullnamelocalized": "", "latitude": "53.3729", "longitude": "-6.3339461111", "operators": [{"name": "bac", "operatortype": 1, "routes": ["39"]}]}, {"stopid": "7370", "displaystopid": "7370", "shortname": "Burlington Road", "shortnamelocalized": "B\u00c3\u00b3thar Burlington", "fullname": "Burlington Road", "fullnamelocalized": "", "latitude": "53.3316211111", "longitude": "-6.245735", "operators": [{"name": "bac", "operatortype": 1, "routes": ["39"]}]}, {"stopid": "4492", "displaystopid": "4492", "shortname": "Hartstown Rd", "shortnamelocalized": "Br Bhaile an Hartai", "fullname": "Hartstown Rd", "fullnamelocalized": "", "latitude": "53.3949983333", "longitude": "-6.4181266667", "operators": [{"name": "bac", "operatortype": 1, "routes": ["39"]}]}, {"stopid": "4903", "displaystopid": "4903", "shortname": "Blanchardstown Rd", "shortnamelocalized": "Br Bhaile Bhlains\u00c3\u00a9i", "fullname": "Blanchardstown Rd", "fullnamelocalized": "", "latitude": "53.3866638889", "longitude": "-6.4017330556", "operators": [{"name": "bac", "operatortype": 1, "routes": ["39"]}]}, {"stopid": "7158", "displaystopid": "7158", "shortname": "Ongar", "shortnamelocalized": "Ongar", "fullname": "Ongar", "fullnamelocalized": "", "latitude": "53.3919180556", "longitude": "-6.4382011111", "operators": [{"name": "bac", "operatortype": 1, "routes": ["39"]}]}, {"stopid": "7159", "displaystopid": "7159", "shortname": "Ongar", "shortnamelocalized": "Ongar", "fullname": "Ongar", "fullnamelocalized": "", "latitude": "53.3965988889", "longitude": "-6.4427338889", "operators": [{"name": "bac", "operatortype": 1, "routes": ["39"]}]}, {"stopid": "7163", "displaystopid": "7163", "shortname": "Hansfield Road", "shortnamelocalized": "B\u00c3\u00b3thar Ph\u00c3\u00a1irc Hans", "fullname": "Hansfield Road", "fullnamelocalized": "", "latitude": "53.3890211111", "longitude": "-6.4304519444", "operators": [{"name": "bac", "operatortype": 1, "routes": ["39"]}]}, {"stopid": "7166", "displaystopid": "7166", "shortname": "Navan Road", "shortnamelocalized": "B\u00c3\u00b3thar na hUaimhe", "fullname": "Navan Road", "fullnamelocalized": "", "latitude": "53.377095", "longitude": "-6.345775", "operators": [{"name": "bac", "operatortype": 1, "routes": ["39"]}]}, {"stopid": "7021", "displaystopid": "7021", "shortname": "Ongar Road", "shortnamelocalized": "B\u00c3\u00b3thar Ongar", "fullname": "Ongar Road", "fullnamelocalized": "", "latitude": "53.3940519444", "longitude": "-6.4310780556", "operators": [{"name": "bac", "operatortype": 1, "routes": ["39"]}]}, {"stopid": "7030", "displaystopid": "7030", "shortname": "Ongar Road", "shortnamelocalized": "B\u00c3\u00b3thar Ongar", "fullname": "Ongar Road", "fullnamelocalized": "", "latitude": "53.395895", "longitude": "-6.4291688889", "operators": [{"name": "bac", "operatortype": 1, "routes": ["39"]}]}, {"stopid": "7453", "displaystopid": "7453", "shortname": "Arran Quay", "shortnamelocalized": "C\u00c3\u00a9 \u00c3\u0081rann", "fullname": "Arran Quay", "fullnamelocalized": "", "latitude": "53.3463380556", "longitude": "-6.2783780556", "operators": [{"name": "bac", "operatortype": 1, "routes": ["39"]}]}, {"stopid": "747", "displaystopid": "747", "shortname": "Kildare Street", "shortnamelocalized": "Sr\u00c3\u00a1id Chill Dara", "fullname": "Kildare Street", "fullnamelocalized": "", "latitude": "53.3399280556", "longitude": "-6.2556969444", "operators": [{"name": "bac", "operatortype": 1, "routes": ["39"]}]}, {"stopid": "748", "displaystopid": "748", "shortname": "Merrion Row", "shortnamelocalized": "Rae Mhuirfean", "fullname": "Merrion Row", "fullnamelocalized": "", "latitude": "53.3385130556", "longitude": "-6.2550038889", "operators": [{"name": "bac", "operatortype": 1, "routes": ["39"]}]}, {"stopid": "749", "displaystopid": "749", "shortname": "Baggot St", "shortnamelocalized": "Sr Bhag\u00c3\u00b3id", "fullname": "Baggot St", "fullnamelocalized": "", "latitude": "53.3375588889", "longitude": "-6.2508288889", "operators": [{"name": "bac", "operatortype": 1, "routes": ["39"]}]}, {"stopid": "7048", "displaystopid": "7048", "shortname": "Ongar", "shortnamelocalized": "Ongar", "fullname": "Ongar", "fullnamelocalized": "", "latitude": "53.3930111111", "longitude": "-6.44268", "operators": [{"name": "bac", "operatortype": 1, "routes": ["39"]}]}, {"stopid": "7339", "displaystopid": "7339", "shortname": "Burlington Road", "shortnamelocalized": "B\u00c3\u00b3thar Burlington", "fullname": "Burlington Road", "fullnamelocalized": "", "latitude": "53.3324069444", "longitude": "-6.2465480556", "operators": [{"name": "bac", "operatortype": 1, "routes": ["39"]}]}, {"stopid": "751", "displaystopid": "751", "shortname": "Baggot St", "shortnamelocalized": "Sr Bhag\u00c3\u00b3id", "fullname": "Baggot St", "fullnamelocalized": "", "latitude": "53.33532", "longitude": "-6.246555", "operators": [{"name": "bac", "operatortype": 1, "routes": ["39"]}]}, {"stopid": "752", "displaystopid": "752", "shortname": "Baggot St", "shortnamelocalized": "Sr Bhag\u00c3\u00b3id", "fullname": "Baggot St", "fullnamelocalized": "", "latitude": "53.3336688889", "longitude": "-6.24444", "operators": [{"name": "bac", "operatortype": 1, "routes": ["39"]}]}, {"stopid": "753", "displaystopid": "753", "shortname": "Waterloo Road", "shortnamelocalized": "B\u00c3\u00b3thar Waterloo", "fullname": "Waterloo Road", "fullnamelocalized": "", "latitude": "53.3324533333", "longitude": "-6.2435211111", "operators": [{"name": "bac", "operatortype": 1, "routes": ["39"]}]}, {"stopid": "750", "displaystopid": "750", "shortname": "Baggot St", "shortnamelocalized": "Sr Bhag\u00c3\u00b3id", "fullname": "Baggot St", "fullnamelocalized": "", "latitude": "53.3365730556", "longitude": "-6.24847", "operators": [{"name": "bac", "operatortype": 1, "routes": ["39"]}]}, {"stopid": "7374", "displaystopid": "7374", "shortname": "Blanchardstown Bypa", "shortnamelocalized": "Seachr\u00c3\u00b3d Bhaile Bhl", "fullname": "Blanchardstown Bypass", "fullnamelocalized": "", "latitude": "53.3839858333", "longitude": "-6.3652433333", "operators": [{"name": "bac", "operatortype": 1, "routes": ["39"]}]}, {"stopid": "7379", "displaystopid": "7379", "shortname": "Blanchardstown Rd", "shortnamelocalized": "Br Bhaile Bhlains\u00c3\u00a9i", "fullname": "Blanchardstown Rd", "fullnamelocalized": "", "latitude": "53.3897483333", "longitude": "-6.400505", "operators": [{"name": "bac", "operatortype": 1, "routes": ["39"]}]}, {"stopid": "7388", "displaystopid": "7388", "shortname": "Ongar", "shortnamelocalized": "Ongar", "fullname": "Ongar", "fullnamelocalized": "", "latitude": "53.3979830556", "longitude": "-6.4423388889", "operators": [{"name": "bac", "operatortype": 1, "routes": ["39"]}]}]}, {"operator": "bac", "origin": "Ongar", "originlocalized": "Ongar", "destination": "Burlington Road", "destinationlocalized": "Burlington Road", "lastupdated": "29/06/2020 07:39:40", "stops": [{"stopid": "7158", "displaystopid": "7158", "shortname": "Ongar", "shortnamelocalized": "Ongar", "fullname": "Ongar", "fullnamelocalized": "", "latitude": "53.3919180556", "longitude": "-6.4382011111", "operators": [{"name": "bac", "operatortype": 1, "routes": ["39"]}]}, {"stopid": "7048", "displaystopid": "7048", "shortname": "Ongar", "shortnamelocalized": "Ongar", "fullname": "Ongar", "fullnamelocalized": "", "latitude": "53.3930111111", "longitude": "-6.44268", "operators": [{"name": "bac", "operatortype": 1, "routes": ["39"]}]}, {"stopid": "7699", "displaystopid": "7699", "shortname": "Ongar", "shortnamelocalized": "", "fullname": "Ongar", "fullnamelocalized": "", "latitude": "53.3949719444", "longitude": "-6.4443219444", "operators": [{"name": "bac", "operatortype": 1, "routes": ["39"]}]}, {"stopid": "7159", "displaystopid": "7159", "shortname": "Ongar", "shortnamelocalized": "Ongar", "fullname": "Ongar", "fullnamelocalized": "", "latitude": "53.3965988889", "longitude": "-6.4427338889", "operators": [{"name": "bac", "operatortype": 1, "routes": ["39"]}]}, {"stopid": "7388", "displaystopid": "7388", "shortname": "Ongar", "shortnamelocalized": "Ongar", "fullname": "Ongar", "fullnamelocalized": "", "latitude": "53.3979830556", "longitude": "-6.4423388889", "operators": [{"name": "bac", "operatortype": 1, "routes": ["39"]}]}, {"stopid": "7017", "displaystopid": "7017", "shortname": "Ongar Road", "shortnamelocalized": "B\u00c3\u00b3thar Ongar", "fullname": "Ongar Road", "fullnamelocalized": "", "latitude": "53.4016230556", "longitude": "-6.4352688889", "operators": [{"name": "bac", "operatortype": 1, "routes": ["39"]}]}, {"stopid": "7018", "displaystopid": "7018", "shortname": "Ongar Road", "shortnamelocalized": "B\u00c3\u00b3thar Ongar", "fullname": "Ongar Road", "fullnamelocalized": "", "latitude": "53.398805", "longitude": "-6.4315530556", "operators": [{"name": "bac", "operatortype": 1, "routes": ["39"]}]}, {"stopid": "7030", "displaystopid": "7030", "shortname": "Ongar Road", "shortnamelocalized": "B\u00c3\u00b3thar Ongar", "fullname": "Ongar Road", "fullnamelocalized": "", "latitude": "53.395895", "longitude": "-6.4291688889", "operators": [{"name": "bac", "operatortype": 1, "routes": ["39"]}]}, {"stopid": "7021", "displaystopid": "7021", "shortname": "Ongar Road", "shortnamelocalized": "B\u00c3\u00b3thar Ongar", "fullname": "Ongar Road", "fullnamelocalized": "", "latitude": "53.3940519444", "longitude": "-6.4310780556", "operators": [{"name": "bac", "operatortype": 1, "routes": ["39"]}]}, {"stopid": "7163", "displaystopid": "7163", "shortname": "Hansfield Road", "shortnamelocalized": "B\u00c3\u00b3thar Ph\u00c3\u00a1irc Hans", "fullname": "Hansfield Road", "fullnamelocalized": "", "latitude": "53.3890211111", "longitude": "-6.4304519444", "operators": [{"name": "bac", "operatortype": 1, "routes": ["39"]}]}, {"stopid": "1893", "displaystopid": "1893", "shortname": "Clonsilla", "shortnamelocalized": "Cluain Saileach", "fullname": "Clonsilla", "fullnamelocalized": "", "latitude": "53.386935", "longitude": "-6.4286288889", "operators": [{"name": "bac", "operatortype": 1, "routes": ["39"]}]}, {"stopid": "1894", "displaystopid": "1894", "shortname": "Clonsilla Rd", "shortnamelocalized": "Br Chluain Saileach", "fullname": "Clonsilla Rd", "fullnamelocalized": "", "latitude": "53.3835611111", "longitude": "-6.4234238889", "operators": [{"name": "bac", "operatortype": 1, "routes": ["39"]}]}, {"stopid": "1912", "displaystopid": "1912", "shortname": "Clonsilla Rd", "shortnamelocalized": "Br Chluain Saileach", "fullname": "Clonsilla Rd", "fullnamelocalized": "", "latitude": "53.3836697222", "longitude": "-6.4205461111", "operators": [{"name": "bac", "operatortype": 1, "routes": ["39"]}]}, {"stopid": "1895", "displaystopid": "1895", "shortname": "Clonsilla Rd", "shortnamelocalized": "Br Chluain Saileach", "fullname": "Clonsilla Rd", "fullnamelocalized": "", "latitude": "53.3835261111", "longitude": "-6.4171541667", "operators": [{"name": "bac", "operatortype": 1, "routes": ["39"]}]}, {"stopid": "1896", "displaystopid": "1896", "shortname": "Clonsilla Rd", "shortnamelocalized": "Br Chluain Saileach", "fullname": "Clonsilla Rd", "fullnamelocalized": "", "latitude": "53.3833555556", "longitude": "-6.4137930556", "operators": [{"name": "bac", "operatortype": 1, "routes": ["39"]}]}, {"stopid": "1897", "displaystopid": "1897", "shortname": "Clonsilla Rd", "shortnamelocalized": "Br Chluain Saileach", "fullname": "Clonsilla Rd", "fullnamelocalized": "", "latitude": "53.3831119444", "longitude": "-6.4103447222", "operators": [{"name": "bac", "operatortype": 1, "routes": ["39"]}]}, {"stopid": "6088", "displaystopid": "6088", "shortname": "Shelerin Road", "shortnamelocalized": "B\u00c3\u00b3thar Shelerin", "fullname": "Shelerin Road", "fullnamelocalized": "", "latitude": "53.3836430556", "longitude": "-6.409465", "operators": [{"name": "bac", "operatortype": 1, "routes": ["39"]}]}, {"stopid": "1898", "displaystopid": "1898", "shortname": "Shelerin Road", "shortnamelocalized": "B\u00c3\u00b3thar Shelerin", "fullname": "Shelerin Road", "fullnamelocalized": "", "latitude": "53.3875988889", "longitude": "-6.4097511111", "operators": [{"name": "bac", "operatortype": 1, "routes": ["39"]}]}, {"stopid": "1858", "displaystopid": "1858", "shortname": "Hartstown Rd", "shortnamelocalized": "Br Bhaile an Hartai", "fullname": "Hartstown Rd", "fullnamelocalized": "", "latitude": "53.3908816667", "longitude": "-6.4106563889", "operators": [{"name": "bac", "operatortype": 1, "routes": ["39"]}]}, {"stopid": "1859", "displaystopid": "1859", "shortname": "Hartstown Rd", "shortnamelocalized": "Br Bhaile an Hartai", "fullname": "Hartstown Rd", "fullnamelocalized": "", "latitude": "53.3910358333", "longitude": "-6.4154922222", "operators": [{"name": "bac", "operatortype": 1, "routes": ["39"]}]}, {"stopid": "1860", "displaystopid": "1860", "shortname": "Hartstown Rd", "shortnamelocalized": "Br Bhaile an Hartai", "fullname": "Hartstown Rd", "fullnamelocalized": "", "latitude": "53.3932991667", "longitude": "-6.4187611111", "operators": [{"name": "bac", "operatortype": 1, "routes": ["39"]}]}, {"stopid": "4492", "displaystopid": "4492", "shortname": "Hartstown Rd", "shortnamelocalized": "Br Bhaile an Hartai", "fullname": "Hartstown Rd", "fullnamelocalized": "", "latitude": "53.3949983333", "longitude": "-6.4181266667", "operators": [{"name": "bac", "operatortype": 1, "routes": ["39"]}]}, {"stopid": "1861", "displaystopid": "1861", "shortname": "Hartstown Rd", "shortnamelocalized": "Br Bhaile an Hartai", "fullname": "Hartstown Rd", "fullnamelocalized": "", "latitude": "53.3967497222", "longitude": "-6.4166633333", "operators": [{"name": "bac", "operatortype": 1, "routes": ["39"]}]}, {"stopid": "1862", "displaystopid": "1862", "shortname": "Huntstown Way", "shortnamelocalized": "Sl\u00c3\u00ad Bhaile an Hunta", "fullname": "Huntstown Way", "fullnamelocalized": "", "latitude": "53.3986161111", "longitude": "-6.4150752778", "operators": [{"name": "bac", "operatortype": 1, "routes": ["39"]}]},