{"errorcode": "0", "errormessage": "", "numberofresults": 6, "route": "67x", "timestamp": "07/07/2020 16:12:19", "results": [{"operator": "bac", "origin": "Celbridge / Maynooth", "originlocalized": "", "destination": "UCD Belfield", "destinationlocalized": "", "lastupdated": "27/06/2016 09:01:04", "stops": [{"stopid": "7049", "displaystopid": "7049", "shortname": "Lucan Bypass", "shortnamelocalized": "Seachr\u00c3\u00b3d Leamhc\u00c3\u00a1in", "fullname": "Lucan Bypass", "fullnamelocalized": "", "latitude": "53.3513", "longitude": "-6.4493", "operators": [{"name": "bac", "operatortype": 1, "routes": ["67X"]}]}, {"stopid": "7108", "displaystopid": "7108", "shortname": "Dublin Rd", "shortnamelocalized": "Br Bhaile \u00c3\u0081tha Clia", "fullname": "Dublin Rd", "fullnamelocalized": "", "latitude": "53.3380269444", "longitude": "-6.5377419444", "operators": [{"name": "bac", "operatortype": 1, "routes": ["67X"]}]}, {"stopid": "7110", "displaystopid": "7110", "shortname": "Dublin Rd", "shortnamelocalized": "Br Bhaile \u00c3\u0081tha Clia", "fullname": "Dublin Rd", "fullnamelocalized": "", "latitude": "53.3427869444", "longitude": "-6.5148630556", "operators": [{"name": "bac", "operatortype": 1, "routes": ["67X"]}]}, {"stopid": "2239", "displaystopid": "2239", "shortname": "Lucan Road", "shortnamelocalized": "B\u00c3\u00b3thar Leamhc\u00c3\u00a1in", "fullname": "Lucan Road", "fullnamelocalized": "", "latitude": "53.356", "longitude": "-6.3919", "operators": [{"name": "bac", "operatortype": 1, "routes": ["67X"]}]}, {"stopid": "2241", "displaystopid": "2241", "shortname": "Lucan Road", "shortnamelocalized": "B\u00c3\u00b3thar Leamhc\u00c3\u00a1in", "fullname": "Lucan Road", "fullnamelocalized": "", "latitude": "53.3549291667", "longitude": "-6.3712680556", "operators": [{"name": "bac", "operatortype": 1, "routes": ["67X"]}]}, {"stopid": "2242", "displaystopid": "2242", "shortname": "Lucan Road", "shortnamelocalized": "B\u00c3\u00b3thar Leamhc\u00c3\u00a1in", "fullname": "Lucan Road", "fullnamelocalized": "", "latitude": "53.3539272222", "longitude": "-6.3670097222", "operators": [{"name": "bac", "operatortype": 1, "routes": ["67X"]}]}, {"stopid": "315", "displaystopid": "315", "shortname": "Bachelors Walk", "shortnamelocalized": "Si\u00c3\u00bal\u00c3\u00a1n Bhaitsil\u00c3\u00a9ir", "fullname": "Bachelors Walk", "fullnamelocalized": "", "latitude": "53.3469938889", "longitude": "-6.2618161111", "operators": [{"name": "bac", "operatortype": 1, "routes": ["67X"]}]}, {"stopid": "4001", "displaystopid": "4001", "shortname": "Leixlip Rd", "shortnamelocalized": "Br L\u00c3\u00a9im an Bhrad\u00c3\u00a1in", "fullname": "Leixlip Rd", "fullnamelocalized": "", "latitude": "53.3591819444", "longitude": "-6.4732111111", "operators": [{"name": "bac", "operatortype": 1, "routes": ["67X"]}]}, {"stopid": "406", "displaystopid": "406", "shortname": "Nassau Street", "shortnamelocalized": "Sr\u00c3\u00a1id Nassau", "fullname": "Nassau Street", "fullnamelocalized": "", "latitude": "53.3425811111", "longitude": "-6.2560930556", "operators": [{"name": "bac", "operatortype": 1, "routes": ["67X"]}]}, {"stopid": "4952", "displaystopid": "4952", "shortname": "UCD", "shortnamelocalized": "UCD", "fullname": "UCD", "fullnamelocalized": "", "latitude": "53.3049488889", "longitude": "-6.2168269444", "operators": [{"name": "bac", "operatortype": 1, "routes": ["67X"]}]}, {"stopid": "7435", "displaystopid": "7435", "shortname": "Con Colbert Rd", "shortnamelocalized": "Br Choinn Colbaird", "fullname": "Con Colbert Rd", "fullnamelocalized": "", "latitude": "53.3431811111", "longitude": "-6.315365", "operators": [{"name": "bac", "operatortype": 1, "routes": ["67X"]}]}, {"stopid": "759", "displaystopid": "759", "shortname": "Donnybrook", "shortnamelocalized": "Domhnach Broc", "fullname": "Donnybrook", "fullnamelocalized": "", "latitude": "53.3203430556", "longitude": "-6.2333238889", "operators": [{"name": "bac", "operatortype": 1, "routes": ["67X"]}]}, {"stopid": "760", "displaystopid": "760", "shortname": "Stillorgan Road", "shortnamelocalized": "B\u00c3\u00b3thar Stigh Lorgan", "fullname": "Stillorgan Road", "fullnamelocalized": "", "latitude": "53.3183238889", "longitude": "-6.23055", "operators": [{"name": "bac", "operatortype": 1, "routes": ["67X"]}]}, {"stopid": "1478", "displaystopid": "1478", "shortname": "Inns Quay", "shortnamelocalized": "C\u00c3\u00a9 na n\u00c3\u201csta\u00c3\u00ad", "fullname": "Inns Quay", "fullnamelocalized": "", "latitude": "53.3456480556", "longitude": "-6.272935", "operators": [{"name": "bac", "operatortype": 1, "routes": ["67X"]}]}, {"stopid": "1479", "displaystopid": "1479", "shortname": "Ormond Quay", "shortnamelocalized": "C\u00c3\u00a9 Urumhan", "fullname": "Ormond Quay", "fullnamelocalized": "", "latitude": "53.3459130556", "longitude": "-6.2692330556", "operators": [{"name": "bac", "operatortype": 1, "routes": ["67X"]}]}, {"stopid": "2236", "displaystopid": "2236", "shortname": "Lucan Road", "shortnamelocalized": "B\u00c3\u00b3thar Leamhc\u00c3\u00a1in", "fullname": "Lucan Road", "fullnamelocalized": "", "latitude": "53.3588469444", "longitude": "-6.4108630556", "operators": [{"name": "bac", "operatortype": 1, "routes": ["67X"]}]}, {"stopid": "2722", "displaystopid": "2722", "shortname": "Con Colbert Rd", "shortnamelocalized": "Br Choinn Colbaird", "fullname": "Con Colbert Rd", "fullnamelocalized": "", "latitude": "53.3434388889", "longitude": "-6.31138", "operators": [{"name": "bac", "operatortype": 1, "routes": ["67X"]}]}, {"stopid": "336", "displaystopid": "336", "shortname": "D'Olier Street", "shortnamelocalized": "Sr\u00c3\u00a1id D'Olier", "fullname": "D'Olier Street", "fullnamelocalized": "", "latitude": "53.3462469444", "longitude": "-6.2577030556", "operators": [{"name": "bac", "operatortype": 1, "routes": ["67X"]}]}, {"stopid": "3921", "displaystopid": "3921", "shortname": "Maynooth Road", "shortnamelocalized": "B\u00c3\u00b3thar Mhaigh Nuad", "fullname": "Maynooth Road", "fullnamelocalized": "", "latitude": "53.3590061111", "longitude": "-6.5511938889", "operators": [{"name": "bac", "operatortype": 1, "routes": ["67X"]}]}, {"stopid": "3922", "displaystopid": "3922", "shortname": "Maynooth Road", "shortnamelocalized": "B\u00c3\u00b3thar Mhaigh Nuad", "fullname": "Maynooth Road", "fullnamelocalized": "", "latitude": "53.3553780556", "longitude": "-6.5468438889", "operators": [{"name": "bac", "operatortype": 1, "routes": ["67X"]}]}, {"stopid": "3923", "displaystopid": "3923", "shortname": "Maynooth Road", "shortnamelocalized": "B\u00c3\u00b3thar Mhaigh Nuad", "fullname": "Maynooth Road", "fullnamelocalized": "", "latitude": "53.3524588889", "longitude": "-6.5468419444", "operators": [{"name": "bac", "operatortype": 1, "routes": ["67X"]}]}, {"stopid": "3924", "displaystopid": "3924", "shortname": "Maynooth Road", "shortnamelocalized": "B\u00c3\u00b3thar Mhaigh Nuad", "fullname": "Maynooth Road", "fullnamelocalized": "", "latitude": "53.3460711111", "longitude": "-6.5417788889", "operators": [{"name": "bac", "operatortype": 1, "routes": ["67X"]}]}, {"stopid": "3927", "displaystopid": "3927", "shortname": "Big Lane", "shortnamelocalized": "An L\u00c3\u00a1na M\u00c3\u00b3r", "fullname": "Big Lane", "fullnamelocalized": "", "latitude": "53.34273", "longitude": "-6.5397938889", "operators": [{"name": "bac", "operatortype": 1, "routes": ["67X"]}]}, {"stopid": "3928", "displaystopid": "3928", "shortname": "Celbridge Main St", "shortnamelocalized": "Sr Mh\u00c3\u00b3r Chill Droic", "fullname": "Celbridge Main St", "fullnamelocalized": "", "latitude": "53.3406811111", "longitude": "-6.5375988889", "operators": [{"name": "bac", "operatortype": 1, "routes": ["67X"]}]}, {"stopid": "3929", "displaystopid": "3929", "shortname": "Celbridge Main St", "shortnamelocalized": "Sr Mh\u00c3\u00b3r Chill Droic", "fullname": "Celbridge Main St", "fullnamelocalized": "", "latitude": "53.3389880556", "longitude": "-6.5390869444", "operators": [{"name": "bac", "operatortype": 1, "routes": ["67X"]}]}, {"stopid": "3935", "displaystopid": "3935", "shortname": "Dublin Rd", "shortnamelocalized": "Br Bhaile \u00c3\u0081tha Clia", "fullname": "Dublin Rd", "fullnamelocalized": "", "latitude": "53.3397469444", "longitude": "-6.5295811111", "operators": [{"name": "bac", "operatortype": 1, "routes": ["67X"]}]}, {"stopid": "3936", "displaystopid": "3936", "shortname": "Dublin Rd", "shortnamelocalized": "Br Bhaile \u00c3\u0081tha Clia", "fullname": "Dublin Rd", "fullnamelocalized": "", "latitude": "53.3420211111", "longitude": "-6.5186788889", "operators": [{"name": "bac", "operatortype": 1, "routes": ["67X"]}]}, {"stopid": "3938", "displaystopid": "3938", "shortname": "Dublin Rd", "shortnamelocalized": "Br Bhaile \u00c3\u0081tha Clia", "fullname": "Dublin Rd", "fullnamelocalized": "", "latitude": "53.3433469444", "longitude": "-6.5122888889", "operators": [{"name": "bac", "operatortype": 1, "routes": ["67X"]}]}, {"stopid": "3939", "displaystopid": "3939", "shortname": "Celbridge Rd", "shortnamelocalized": "Br Chill Droichid", "fullname": "Celbridge Rd", "fullnamelocalized": "", "latitude": "53.3446161111", "longitude": "-6.5061911111", "operators": [{"name": "bac", "operatortype": 1, "routes": ["67X"]}]}, {"stopid": "3940", "displaystopid": "3940", "shortname": "Celbridge Rd", "shortnamelocalized": "Br Chill Droichid", "fullname": "Celbridge Rd", "fullnamelocalized": "", "latitude": "53.3455430556", "longitude": "-6.5015969444", "operators": [{"name": "bac", "operatortype": 1, "routes": ["67X"]}]}, {"stopid": "3941", "displaystopid": "3941", "shortname": "Celbridge Rd", "shortnamelocalized": "Br Chill Droichid", "fullname": "Celbridge Rd", "fullnamelocalized": "", "latitude": "53.3460480556", "longitude": "-6.499215", "operators": [{"name": "bac", "operatortype": 1, "routes": ["67X"]}]}, {"stopid": "3943", "displaystopid": "3943", "shortname": "Celbridge Rd", "shortnamelocalized": "Br Chill Droichid", "fullname": "Celbridge Rd", "fullnamelocalized": "", "latitude": "53.3470730556", "longitude": "-6.4942788889", "operators": [{"name": "bac", "operatortype": 1, "routes": ["67X"]}]}, {"stopid": "3944", "displaystopid": "3944", "shortname": "Celbridge Rd", "shortnamelocalized": "Br Chill Droichid", "fullname": "Celbridge Rd", "fullnamelocalized": "", "latitude": "53.3489938889", "longitude": "-6.4893888889", "operators": [{"name": "bac", "operatortype": 1, "routes": ["67X"]}]}, {"stopid": "3945", "displaystopid": "3945", "shortname": "Celbridge Rd", "shortnamelocalized": "Br Chill Droichid", "fullname": "Celbridge Rd", "fullnamelocalized": "", "latitude": "53.3537019444", "longitude": "-6.479855", "operators": [{"name": "bac", "operatortype": 1, "routes": ["67X"]}]}, {"stopid": "3946", "displaystopid": "3946", "shortname": "Celbridge Rd", "shortnamelocalized": "Br Chill Droichid", "fullname": "Celbridge Rd", "fullnamelocalized": "", "latitude": "53.356115", "longitude": "-6.4753130556", "operators": [{"name": "bac", "operatortype": 1, "routes": ["67X"]}]}, {"stopid": "4413", "displaystopid": "4413", "shortname": "St. John's Road", "shortnamelocalized": "B\u00c3\u00b3thar Eoin", "fullname": "St. John's Road", "fullnamelocalized": "", "latitude": "53.3461619444", "longitude": "-6.2926988889", "operators": [{"name": "bac", "operatortype": 1, "routes": ["67X"]}]}, {"stopid": "751", "displaystopid": "751", "shortname": "Baggot St", "shortnamelocalized": "Sr Bhag\u00c3\u00b3id", "fullname": "Baggot St", "fullnamelocalized": "", "latitude": "53.33532", "longitude": "-6.246555", "operators": [{"name": "bac", "operatortype": 1, "routes": ["67X"]}]}, {"stopid": "752", "displaystopid": "752", "shortname": "Baggot St", "shortnamelocalized": "Sr Bhag\u00c3\u00b3id", "fullname": "Baggot St", "fullnamelocalized": "", "latitude": "53.3336688889", "longitude": "-6.24444", "operators": [{"name": "bac", "operatortype": 1, "routes": ["67X"]}]}, {"stopid": "753", "displaystopid": "753", "shortname": "Waterloo Road", "shortnamelocalized": "B\u00c3\u00b3thar Waterloo", "fullname": "Waterloo Road", "fullnamelocalized": "", "latitude": "53.3324533333", "longitude": "-6.2435211111", "operators": [{"name": "bac", "operatortype": 1, "routes": ["67X"]}]}, {"stopid": "754", "displaystopid": "754", "shortname": "Waterloo Road", "shortnamelocalized": "B\u00c3\u00b3thar Waterloo", "fullname": "Waterloo Road", "fullnamelocalized": "", "latitude": "53.3307838889", "longitude": "-6.2442802778", "operators": [{"name": "bac", "operatortype": 1, "routes": ["67X"]}]}, {"stopid": "755", "displaystopid": "755", "shortname": "Waterloo Road", "shortnamelocalized": "B\u00c3\u00b3thar Waterloo", "fullname": "Waterloo Road", "fullnamelocalized": "", "latitude": "53.3288280556", "longitude": "-6.2451413889", "operators": [{"name": "bac", "operatortype": 1, "routes": ["67X"]}]}, {"stopid": "756", "displaystopid": "756", "shortname": "Morehampton Road", "shortnamelocalized": "B\u00c3\u00b3thar Morehampton", "fullname": "Morehampton Road", "fullnamelocalized": "", "latitude": "53.32639", "longitude": "-6.2425761111", "operators": [{"name": "bac", "operatortype": 1, "routes": ["67X"]}]}, {"stopid": "757", "displaystopid": "757", "shortname": "Morehampton Road", "shortnamelocalized": "B\u00c3\u00b3thar Morehampton", "fullname": "Morehampton Road", "fullnamelocalized": "", "latitude": "53.324075", "longitude": "-6.2395738889", "operators": [{"name": "bac", "operatortype": 1, "routes": ["67X"]}]}, {"stopid": "758", "displaystopid": "758", "shortname": "Morehampton Road", "shortnamelocalized": "B\u00c3\u00b3thar Morehampton", "fullname": "Morehampton Road", "fullnamelocalized": "", "latitude": "53.3226780556", "longitude": "-6.2376638889", "operators": [{"name": "bac", "operatortype": 1, "routes": ["67X"]}]}, {"stopid": "1476", "displaystopid": "1476", "shortname": "Wolfe Tone Quay", "shortnamelocalized": "C\u00c3\u00a9 Wolfe Tone", "fullname": "Wolfe Tone Quay", "fullnamelocalized": "", "latitude": "53.3470030556", "longitude": "-6.2846638889", "operators": [{"name": "bac", "operatortype": 1, "routes": ["67X"]}]}, {"stopid": "3112", "displaystopid": "3112", "shortname": "Maynooth Road", "shortnamelocalized": "B\u00c3\u00b3thar Mhaigh Nuad", "fullname": "Maynooth Road", "fullnamelocalized": "", "latitude": "53.35051", "longitude": "-6.5447261111", "operators": [{"name": "bac", "operatortype": 1, "routes": ["67X"]}]}, {"stopid": "7193", "displaystopid": "7193", "shortname": "Lucan Bypass", "shortnamelocalized": "Seachr\u00c3\u00b3d Leamhc\u00c3\u00a1in", "fullname": "Lucan Bypass", "fullnamelocalized": "", "latitude": "53.3540588889", "longitude": "-6.4588769444", "operators": [{"name": "bac", "operatortype": 1, "routes": ["67X"]}]}, {"stopid": "7453", "displaystopid": "7453", "shortname": "Arran Quay", "shortnamelocalized": "C\u00c3\u00a9 \u00c3\u0081rann", "fullname": "Arran Quay", "fullnamelocalized": "", "latitude": "53.3463380556", "longitude": "-6.2783780556", "operators": [{"name": "bac", "operatortype": 1, "routes": ["67X"]}]}, {"stopid": "747", "displaystopid": "747", "shortname": "Kildare Street", "shortnamelocalized": "Sr\u00c3\u00a1id Chill Dara", "fullname": "Kildare Street", "fullnamelocalized": "", "latitude": "53.3399280556", "longitude": "-6.2556969444", "operators": [{"name": "bac", "operatortype": 1, "routes": ["67X"]}]}, {"stopid": "748", "displaystopid": "748", "shortname": "Merrion Row", "shortnamelocalized": "Rae Mhuirfean", "fullname": "Merrion Row", "fullnamelocalized": "", "latitude": "53.3385130556", "longitude": "-6.2550038889", "operators": [{"name": "bac", "operatortype": 1, "routes": ["67X"]}]}, {"stopid": "749", "displaystopid": "749", "shortname": "Baggot St", "shortnamelocalized": "Sr Bhag\u00c3\u00b3id", "fullname": "Baggot St", "fullnamelocalized": "", "latitude": "53.3375588889", "longitude": "-6.2508288889", "operators": [{"name": "bac", "operatortype": 1, "routes": ["67X"]}]}, {"stopid": "750", "displaystopid": "750", "shortname": "Baggot St", "shortnamelocalized": "Sr Bhag\u00c3\u00b3id", "fullname": "Baggot St", "fullnamelocalized": "", "latitude": "53.3365730556", "longitude": "-6.24847", "operators": [{"name": "bac", "operatortype": 1, "routes": ["67X"]}]}, {"stopid": "761", "displaystopid": "761", "shortname": "Stillorgan Road", "shortnamelocalized": "B\u00c3\u00b3thar Stigh Lorgan", "fullname": "Stillorgan Road", "fullnamelocalized": "", "latitude": "53.3160911111", "longitude": "-6.2274719444", "operators": [{"name": "bac", "operatortype": 1, "routes": ["67X"]}]}, {"stopid": "762", "displaystopid": "762", "shortname": "RTE", "shortnamelocalized": "B\u00c3\u00b3thar Stigh Lorgan", "fullname": "RTE", "fullnamelocalized": "", "latitude": "53.3145161111", "longitude": "-6.2243619444", "operators": [{"name": "bac", "operatortype": 1, "routes": ["67X"]}]}, {"stopid": "763", "displaystopid": "763", "shortname": "Stillorgan Road", "shortnamelocalized": "B\u00c3\u00b3thar Stigh Lorgan", "fullname": "Stillorgan Road", "fullnamelocalized": "", "latitude": "53.3123211111", "longitude": "-6.2211380556", "operators": [{"name": "bac", "operatortype": 1, "routes": ["67X"]}]}]}, {"operator": "bac", "origin": "Maynooth Road", "originlocalized": "Maynooth Road", "destination": "Merrion Square", "destinationlocalized": "Cearn\u00f3g Mhuirfean", "lastupdated": "29/06/2020 07:43:41", "stops": [{"stopid": "3921", "displaystopid": "3921", "shortname": "Maynooth Road", "shortnamelocalized": "B\u00c3\u00b3thar Mhaigh Nuad", "fullname": "Maynooth Road", "fullnamelocalized": "", "latitude": "53.3590061111", "longitude": "-6.5511938889", "operators": [{"name": "bac", "operatortype": 1, "routes": ["67X"]}]}, {"stopid": "3922", "displaystopid": "3922", "shortname": "Maynooth Road", "shortnamelocalized": "B\u00c3\u00b3thar Mhaigh Nuad", "fullname": "Maynooth Road", "fullnamelocalized": "", "latitude": "53.3553780556", "longitude": "-6.5468438889", "operators": [{"name": "bac", "operatortype": 1, "routes": ["67X"]}]}, {"stopid": "3923", "displaystopid": "3923", "shortname": "Maynooth Road", "shortnamelocalized": "B\u00c3\u00b3thar Mhaigh Nuad", "fullname": "Maynooth Road", "fullnamelocalized": "", "latitude": "53.3524588889", "longitude": "-6.5468419444", "operators": [{"name": "bac", "operatortype": 1, "routes": ["67X"]}]}, {"stopid": "3112", "displaystopid": "3112", "shortname": "Maynooth Road", "shortnamelocalized": "B\u00c3\u00b3thar Mhaigh Nuad", "fullname": "Maynooth Road", "fullnamelocalized": "", "latitude": "53.35051", "longitude": "-6.5447261111", "operators": [{"name": "bac", "operatortype": 1, "routes": ["67X"]}]}, {"stopid": "3924", "displaystopid": "3924", "shortname": "Maynooth Road", "shortnamelocalized": "B\u00c3\u00b3thar Mhaigh Nuad", "fullname": "Maynooth Road", "fullnamelocalized": "", "latitude": "53.3460711111", "longitude": "-6.5417788889", "operators": [{"name": "bac", "operatortype": 1, "routes": ["67X"]}]}, {"stopid": "3927", "displaystopid": "3927", "shortname": "Big Lane", "shortnamelocalized": "An L\u00c3\u00a1na M\u00c3\u00b3r", "fullname": "Big Lane", "fullnamelocalized": "", "latitude": "53.34273", "longitude": "-6.5397938889", "operators": [{"name": "bac", "operatortype": 1, "routes": ["67X"]}]}, {"stopid": "3928", "displaystopid": "3928", "shortname": "Celbridge Main St", "shortnamelocalized": "Sr Mh\u00c3\u00b3r Chill Droic", "fullname": "Celbridge Main St", "fullnamelocalized": "", "latitude": "53.3406811111", "longitude": "-6.5375988889", "operators": [{"name": "bac", "operatortype": 1, "routes": ["67X"]}]}, {"stopid": "3929", "displaystopid": "3929", "shortname": "Celbridge Main St", "shortnamelocalized": "Sr Mh\u00c3\u00b3r Chill Droic", "fullname": "Celbridge Main St", "fullnamelocalized": "", "latitude": "53.3389880556", "longitude": "-6.5390869444", "operators": [{"name": "bac", "operatortype": 1, "routes": ["67X"]}]}, {"stopid": "7108", "displaystopid": "7108", "shortname": "Dublin Rd", "shortnamelocalized": "Br Bhaile \u00c3\u0081tha Clia", "fullname": "Dublin Rd", "fullnamelocalized": "", "latitude": "53.3380269444", "longitude": "-6.5377419444", "operators": [{"name": "bac", "operatortype": 1, "routes": ["67X"]}]}, {"stopid": "3935", "displaystopid": "3935", "shortname": "Dublin Rd", "shortnamelocalized": "Br Bhaile \u00c3\u0081tha Clia", "fullname": "Dublin Rd", "fullnamelocalized": "", "latitude": "53.3397469444", "longitude": "-6.5295811111", "operators": [{"name": "bac", "operatortype": 1, "routes": ["67X"]}]}, {"stopid": "3936", "displaystopid": "3936", "shortname": "Dublin Rd", "shortnamelocalized": "Br Bhaile \u00c3\u0081tha Clia", "fullname": "Dublin Rd", "fullnamelocalized": "", "latitude": "53.3420211111", "longitude": "-6.5186788889", "operators": [{"name": "bac", "operatortype": 1, "routes": ["67X"]}]}, {"stopid": "7110", "displaystopid": "7110", "shortname": "Dublin Rd", "shortnamelocalized": "Br Bhaile \u00c3\u0081tha Clia", "fullname": "Dublin Rd", "fullnamelocalized": "", "latitude": "53.3427869444", "longitude": "-6.5148630556", "operators": [{"name": "bac", "operatortype": 1, "routes": ["67X"]}]}, {"stopid": "3938", "displaystopid": "3938", "shortname": "Dublin Rd", "shortnamelocalized": "Br Bhaile \u00c3\u0081tha Clia", "fullname": "Dublin Rd", "fullnamelocalized": "", "latitude": "53.3433469444", "longitude": "-6.5122888889", "operators": [{"name": "bac", "operatortype": 1, "routes": ["67X"]}]}, {"stopid": "3939", "displaystopid": "3939", "shortname": "Celbridge Rd", "shortnamelocalized": "Br Chill Droichid", "fullname": "Celbridge Rd", "fullnamelocalized": "", "latitude": "53.3446161111", "longitude": "-6.5061911111", "operators": [{"name": "bac", "operatortype": 1, "routes": ["67X"]}]}, {"stopid": "3940", "displaystopid": "3940", "shortname": "Celbridge Rd", "shortnamelocalized": "Br Chill Droichid", "fullname": "Celbridge Rd", "fullnamelocalized": "", "latitude": "53.3455430556", "longitude": "-6.5015969444", "operators": [{"name": "bac", "operatortype": 1, "routes": ["67X"]}]}, {"stopid": "3941", "displaystopid": "3941", "shortname": "Celbridge Rd", "shortnamelocalized": "Br Chill Droichid", "fullname": "Celbridge Rd", "fullnamelocalized": "", "latitude": "53.3460480556", "longitude": "-6.499215", "operators": [{"name": "bac", "operatortype": 1, "routes": ["67X"]}]}, {"stopid": "3943", "displaystopid": "3943", "shortname": "Celbridge Rd", "shortnamelocalized": "Br Chill Droichid", "fullname": "Celbridge Rd", "fullnamelocalized": "", "latitude": "53.3470730556", "longitude": "-6.4942788889", "operators": [{"name": "bac", "operatortype": 1, "routes": ["67X"]}]}, {"stopid": "3944", "displaystopid": "3944", "shortname": "Celbridge Rd", "shortnamelocalized": "Br Chill Droichid", "fullname": "Celbridge Rd", "fullnamelocalized": "", "latitude": "53.3489938889", "longitude": "-6.4893888889", "operators": [{"name": "bac", "operatortype": 1, "routes": ["67X"]}]}, {"stopid": "3945", "displaystopid": "3945", "shortname": "Celbridge Rd", "shortnamelocalized": "Br Chill Droichid", "fullname": "Celbridge Rd", "fullnamelocalized": "", "latitude": "53.3537019444", "longitude": "-6.479855", "operators": [{"name": "bac", "operatortype": 1, "routes": ["67X"]}]}, {"stopid": "3946", "displaystopid": "3946", "shortname": "Celbridge Rd", "shortnamelocalized": "Br Chill Droichid", "fullname": "Celbridge Rd", "fullnamelocalized": "", "latitude": "53.356115", "longitude": "-6.4753130556", "operators": [{"name": "bac", "operatortype": 1, "routes": ["67X"]}]}, {"stopid": "4001", "displaystopid": "4001", "shortname": "Leixlip Rd", "shortnamelocalized": "Br L\u00c3\u00a9im an Bhrad\u00c3\u00a1in", "fullname": "Leixlip Rd", "fullnamelocalized": "", "latitude": "53.3591819444", "longitude": "-6.4732111111", "operators": [{"name": "bac", "operatortype": 1, "routes": ["67X"]}]}, {"stopid": "7193", "displaystopid": "7193", "shortname": "Lucan Bypass", "shortnamelocalized": "Seachr\u00c3\u00b3d Leamhc\u00c3\u00a1in", "fullname": "Lucan Bypass", "fullnamelocalized": "", "latitude": "53.3540588889", "longitude": "-6.4588769444", "operators": [{"name": "bac", "operatortype": 1, "routes": ["67X"]}]}, {"stopid": "7049", "displaystopid": "7049", "shortname": "Lucan Bypass", "shortnamelocalized": "Seachr\u00c3\u00b3d Leamhc\u00c3\u00a1in", "fullname": "Lucan Bypass", "fullnamelocalized": "", "latitude": "53.3513", "longitude": "-6.4493", "operators": [{"name": "bac", "operatortype": 1, "routes": ["67X"]}]}, {"stopid": "2236", "displaystopid": "2236", "shortname": "Lucan Road", "shortnamelocalized": "B\u00c3\u00b3thar Leamhc\u00c3\u00a1in", "fullname": "Lucan Road", "fullnamelocalized": "", "latitude": "53.3588469444", "longitude": "-6.4108630556", "operators": [{"name": "bac", "operatortype": 1, "routes": ["67X"]}]}, {"stopid": "2239", "displaystopid": "2239", "shortname": "Lucan Road", "shortnamelocalized": "B\u00c3\u00b3thar Leamhc\u00c3\u00a1in", "fullname": "Lucan Road", "fullnamelocalized": "", "latitude": "53.356", "longitude": "-6.3919", "operators": [{"name": "bac", "operatortype": 1, "routes": ["67X"]}]}, {"stopid": "2241", "displaystopid": "2241", "shortname": "Lucan Road", "shortnamelocalized": "B\u00c3\u00b3thar Leamhc\u00c3\u00a1in", "fullname": "Lucan Road", "fullnamelocalized": "", "latitude": "53.3549291667", "longitude": "-6.3712680556", "operators": [{"name": "bac", "operatortype": 1, "routes": ["67X"]}]}, {"stopid": "2242", "displaystopid": "2242", "shortname": "Lucan Road", "shortnamelocalized": "B\u00c3\u00b3thar Leamhc\u00c3\u00a1in", "fullname": "Lucan Road", "fullnamelocalized": "", "latitude": "53.3539272222", "longitude": "-6.3670097222", "operators": [{"name": "bac", "operatortype": 1, "routes": ["67X"]}]}, {"stopid": "7435", "displaystopid": "7435", "shortname": "Con Colbert Rd", "shortnamelocalized": "Br Choinn Colbaird", "fullname": "Con Colbert Rd", "fullnamelocalized": "", "latitude": "53.3431811111", "longitude": "-6.315365", "operators": [{"name": "bac", "operatortype": 1, "routes": ["67X"]}]}, {"stopid": "2722", "displaystopid": "2722", "shortname": "Con Colbert Rd", "shortnamelocalized": "Br Choinn Colbaird", "fullname": "Con Colbert Rd", "fullnamelocalized": "", "latitude": "53.3434388889", "longitude": "-6.31138", "operators": [{"name": "bac", "operatortype": 1, "routes": ["67X"]}]}, {"stopid": "4413", "displaystopid": "4413", "shortname": "St. John's Road", "shortnamelocalized": "B\u00c3\u00b3thar Eoin", "fullname": "St. John's Road", "fullnamelocalized": "", "latitude": "53.3461619444", "longitude": "-6.2926988889", "operators": [{"name": "bac", "operatortype": 1, "routes": ["67X"]}]}, {"stopid": "1476", "displaystopid": "1476", "shortname": "Wolfe Tone Quay", "shortnamelocalized": "C\u00c3\u00a9 Wolfe Tone", "fullname": "Wolfe Tone Quay", "fullnamelocalized": "", "latitude": "53.3470030556", "longitude": "-6.2846638889", "operators": [{"name": "bac", "operatortype": 1, "routes": ["67X"]}]}, {"stopid": "7453", "displaystopid": "7453", "shortname": "Arran Quay", "shortnamelocalized": "C\u00c3\u00a9 \u00c3\u0081rann", "fullname": "Arran Quay", "fullnamelocalized": "", "latitude": "53.3463380556", "longitude": "-6.2783780556", "operators": [{"name": "bac", "operatortype": 1, "routes": ["67X"]}]}, {"stopid": "1478", "displaystopid": "1478", "shortname": "Inns Quay", "shortnamelocalized": "C\u00c3\u00a9 na n\u00c3\u201csta\u00c3\u00ad", "fullname": "Inns Quay", "fullnamelocalized": "", "latitude": "53.3456480556", "longitude": "-6.272935", "operators": [{"name": "bac", "operatortype": 1, "routes": ["67X"]}]}, {"stopid": "1479", "displaystopid": "1479", "shortname": "Ormond Quay", "shortnamelocalized": "C\u00c3\u00a9 Urumhan", "fullname": "Ormond Quay", "fullnamelocalized": "", "latitude": "53.3459130556", "longitude": "-6.2692330556", "operators": [{"name": "bac", "operatortype": 1, "routes": ["67X"]}]}, {"stopid": "315", "displaystopid": "315", "shortname": "Bachelors Walk", "shortnamelocalized": "Si\u00c3\u00bal\u00c3\u00a1n Bhaitsil\u00c3\u00a9ir", "fullname": "Bachelors Walk", "fullnamelocalized": "", "latitude": "53.3469938889", "longitude": "-6.2618161111", "operators": [{"name": "bac", "operatortype": 1, "routes": ["67X"]}]}, {"stopid": "4495", "displaystopid": "4495", "shortname": "Hawkins Street", "shortnamelocalized": "Sr\u00c3\u00a1id Hawkins", "fullname": "Hawkins Street", "fullnamelocalized": "", "latitude": "53.3461830556", "longitude": "-6.2569661111", "operators": [{"name": "bac", "operatortype": 1, "routes": ["67X"]}]}, {"stopid": "2809", "displaystopid": "2809", "shortname": "Westland Row", "shortnamelocalized": "Rae an Iarthair", "fullname": "Westland Row", "fullnamelocalized": "", "latitude": "53.34303", "longitude": "-6.249845", "operators": [{"name": "bac", "operatortype": 1, "routes": ["67X"]}]}, {"stopid": "2810", "displaystopid": "2810", "shortname": "Merrion Square", "shortnamelocalized": "Cearn\u00c3\u00b3g Mhuirfean", "fullname": "Merrion Square", "fullnamelocalized": "", "latitude": "53.34079", "longitude": "-6.2509830556", "operators": [{"name": "bac", "operatortype": 1, "routes": ["67X"]}]}]}, {"operator": "bac", "origin": "Maynooth Road", "originlocalized": "Maynooth Road", "destination": "UCD", "destinationlocalized": "Ollscoil B\u00c1C", "lastupdated": "29/06/2020 07:43:38", "stops": [{"stopid": "3921", "displaystopid": "3921", "shortname": "Maynooth Road", "shortnamelocalized": "B\u00c3\u00b3thar Mhaigh Nuad", "fullname": "Maynooth Road", "fullnamelocalized": "", "latitude": "53.3590061111", "longitude": "-6.5511938889", "operators": [{"name": "bac", "operatortype": 1, "routes": ["67X"]}]}, {"stopid": "3922", "displaystopid": "3922", "shortname": "Maynooth Road", "shortnamelocalized": "B\u00c3\u00b3thar Mhaigh Nuad", "fullname": "Maynooth Road", "fullnamelocalized": "", "latitude": "53.3553780556", "longitude": "-6.5468438889", "operators": [{"name": "bac", "operatortype": 1, "routes": ["67X"]}]}, {"stopid": "3923", "displaystopid": "3923", "shortname": "Maynooth Road", "shortnamelocalized": "B\u00c3\u00b3thar Mhaigh Nuad", "fullname": "Maynooth Road", "fullnamelocalized": "", "latitude": "53.3524588889", "longitude": "-6.5468419444", "operators": [{"name": "bac", "operatortype": 1, "routes": ["67X"]}]}, {"stopid": "3112", "displaystopid": "3112", "shortname": "Maynooth Road", "shortnamelocalized": "B\u00c3\u00b3thar Mhaigh Nuad", "fullname": "Maynooth Road", "fullnamelocalized": "", "latitude": "53.35051", "longitude": "-6.5447261111", "operators": [{"name": "bac", "operatortype": 1, "routes": ["67X"]}]}, {"stopid": "3924", "displaystopid": "3924", "shortname": "Maynooth Road", "shortnamelocalized": "B\u00c3\u00b3thar Mhaigh Nuad", "fullname": "Maynooth Road", "fullnamelocalized": "", "latitude": "53.3460711111", "longitude": "-6.5417788889", "operators": [{"name": "bac", "operatortype": 1, "routes": ["67X"]}]}, {"stopid": "3927", "displaystopid": "3927", "shortname": "Big Lane", "shortnamelocalized": "An L\u00c3\u00a1na M\u00c3\u00b3r", "fullname": "Big Lane", "fullnamelocalized": "", "latitude": "53.34273", "longitude": "-6.5397938889", "operators": [{"name": "bac", "operatortype": 1, "routes": ["67X"]}]}, {"stopid": "3928", "displaystopid": "3928", "shortname": "Celbridge Main St", "shortnamelocalized": "Sr Mh\u00c3\u00b3r Chill Droic", "fullname": "Celbridge Main St", "fullnamelocalized": "", "latitude": "53.3406811111", "longitude": "-6.5375988889", "operators": [{"name": "bac", "operatortype": 1, "routes": ["67X"]}]}, {"stopid": "3929", "displaystopid": "3929", "shortname": "Celbridge Main St", "shortnamelocalized": "Sr Mh\u00c3\u00b3r Chill Droic", "fullname": "Celbridge Main St", "fullnamelocalized": "", "latitude": "53.3389880556", "longitude": "-6.5390869444", "operators": [{"name": "bac", "operatortype": 1, "routes": ["67X"]}]}, {"stopid": "7108", "displaystopid": "7108", "shortname": "Dublin Rd", "shortnamelocalized": "Br Bhaile \u00c3\u0081tha Clia", "fullname": "Dublin Rd", "fullnamelocalized": "", "latitude": "53.3380269444", "longitude": "-6.5377419444", "operators": [{"name": "bac", "operatortype": 1, "routes": ["67X"]}]}, {"stopid": "3935", "displaystopid": "3935", "shortname": "Dublin Rd", "shortnamelocalized": "Br Bhaile \u00c3\u0081tha Clia", "fullname": "Dublin Rd", "fullnamelocalized": "", "latitude": "53.3397469444", "longitude": "-6.5295811111", "operators": [{"name": "bac", "operatortype": 1, "routes": ["67X"]}]}, {"stopid": "3936", "displaystopid": "3936", "shortname": "Dublin Rd", "shortnamelocalized": "Br Bhaile \u00c3\u0081tha Clia", "fullname": "Dublin Rd", "fullnamelocalized": "", "latitude": "53.3420211111", "longitude": "-6.5186788889", "operators": [{"name": "bac", "operatortype": 1, "routes": ["67X"]}]}, {"stopid": "7110", "displaystopid": "7110", "shortname": "Dublin Rd", "shortnamelocalized": "Br Bhaile \u00c3\u0081tha Clia", "fullname": "Dublin Rd", "fullnamelocalized": "", "latitude": "53.3427869444", "longitude": "-6.5148630556", "operators": [{"name": "bac", "operatortype": 1, "routes": ["67X"]}]}, {"stopid": "3938", "displaystopid": "3938", "shortname": "Dublin Rd", "shortnamelocalized": "Br Bhaile \u00c3\u0081tha Clia", "fullname": "Dublin Rd", "fullnamelocalized": "", "latitude": "53.3433469444", "longitude": "-6.5122888889", "operators": [{"name": "bac", "operatortype": 1, "routes": ["67X"]}]}, {"stopid": "3939", "displaystopid": "3939", "shortname": "Celbridge Rd", "shortnamelocalized": "Br Chill Droichid", "fullname": "Celbridge Rd", "fullnamelocalized": "", "latitude": "53.3446161111", "longitude": "-6.5061911111", "operators": [{"name": "bac", "operatortype": 1, "routes": ["67X"]}]}, {"stopid": "3940", "displaystopid": "3940", "shortname": "Celbridge Rd", "shortnamelocalized": "Br Chill Droichid", "fullname": "Celbridge Rd", "fullnamelocalized": "", "latitude": "53.3455430556", "longitude": "-6.5015969444", "operators": [{"name": "bac", "operatortype": 1, "routes": ["67X"]}]}, {"stopid": "3941", "displaystopid": "3941", "shortname": "Celbridge Rd", "shortnamelocalized": "Br Chill Droichid", "fullname": "Celbridge Rd", "fullnamelocalized": "", "latitude": "53.3460480556", "longitude": "-6.499215", "operators": [{"name": "bac", "operatortype": 1, "routes": ["67X"]}]}, {"stopid": "3943", "displaystopid": "3943", "shortname": "Celbridge Rd", "shortnamelocalized": "Br Chill Droichid", "fullname": "Celbridge Rd", "fullnamelocalized": "", "latitude": "53.3470730556", "longitude": "-6.4942788889", "operators": [{"name": "bac", "operatortype": 1, "routes": ["67X"]}]}, {"stopid": "3944", "displaystopid": "3944", "shortname": "Celbridge Rd", "shortnamelocalized": "Br Chill Droichid", "fullname": "Celbridge Rd", "fullnamelocalized": "", "latitude": "53.3489938889", "longitude": "-6.4893888889", "operators": [{"name": "bac", "operatortype": 1, "routes": ["67X"]}]}, {"stopid": "3945", "displaystopid": "3945", "shortname": "Celbridge Rd", "shortnamelocalized": "Br Chill Droichid", "fullname": "Celbridge Rd", "fullnamelocalized": "", "latitude": "53.3537019444", "longitude": "-6.479855", "operators": [{"name": "bac", "operatortype": 1, "routes": ["67X"]}]}, {"stopid": "3946", "displaystopid": "3946", "shortname": "Celbridge Rd", "shortnamelocalized": "Br Chill Droichid", "fullname": "Celbridge Rd", "fullnamelocalized": "", "latitude": "53.356115", "longitude": "-6.4753130556", "operators": [{"name": "bac", "operatortype": 1, "routes": ["67X"]}]}, {"stopid": "4001", "displaystopid": "4001", "shortname": "Leixlip Rd", "shortnamelocalized": "Br L\u00c3\u00a9im an Bhrad\u00c3\u00a1in", "fullname": "Leixlip Rd", "fullnamelocalized": "", "latitude": "53.3591819444", "longitude": "-6.4732111111", "operators": [{"name": "bac", "operatortype": 1, "routes": ["67X"]}]}, {"stopid": "7193", "displaystopid": "7193", "shortname": "Lucan Bypass", "shortnamelocalized": "Seachr\u00c3\u00b3d Leamhc\u00c3\u00a1in", "fullname": "Lucan Bypass", "fullnamelocalized": "", "latitude": "53.3540588889", "longitude": "-6.4588769444", "operators": [{"name": "bac", "operatortype": 1, "routes": ["67X"]}]}, {"stopid": "7049", "displaystopid": "7049", "shortname": "Lucan Bypass", "shortnamelocalized": "Seachr\u00c3\u00b3d Leamhc\u00c3\u00a1in", "fullname": "Lucan Bypass", "fullnamelocalized": "", "latitude": "53.3513", "longitude": "-6.4493", "operators": [{"name": "bac", "operatortype": 1, "routes": ["67X"]}]}, {"stopid": "2236", "displaystopid": "2236", "shortname": "Lucan Road", "shortnamelocalized": "B\u00c3\u00b3thar Leamhc\u00c3\u00a1in", "fullname": "Lucan Road", "fullnamelocalized": "", "latitude": "53.3588469444", "longitude": "-6.4108630556", "operators": [{"name": "bac", "operatortype": 1, "routes": ["67X"]}]}, {"stopid": "2239", "displaystopid": "2239", "shortname": "Lucan Road", "shortnamelocalized": "B\u00c3\u00b3thar Leamhc\u00c3\u00a1in", "fullname": "Lucan Road", "fullnamelocalized": "", "latitude": "53.356", "longitude": "-6.3919", "operators": [{"name": "bac", "operatortype": 1, "routes": ["67X"]}]}, {"stopid": "2241", "displaystopid": "2241", "shortname": "Lucan Road", "shortnamelocalized": "B\u00c3\u00b3thar Leamhc\u00c3\u00a1in", "fullname": "Lucan Road", "fullnamelocalized": "", "latitude": "53.3549291667", "longitude": "-6.3712680556", "operators": [{"name": "bac", "operatortype": 1, "routes": ["67X"]}]}, {"stopid": "2242", "displaystopid": "2242", "shortname": "Lucan Road", "shortnamelocalized": "B\u00c3\u00b3thar Leamhc\u00c3\u00a1in", "fullname": "Lucan Road", "fullnamelocalized": "", "latitude": "53.3539272222", "longitude": "-6.3670097222", "operators": [{"name": "bac", "operatortype": 1, "routes": ["67X"]}]}, {"stopid": "7435", "displaystopid": "7435", "shortname": "Con Colbert Rd", "shortnamelocalized": "Br Choinn Colbaird", "fullname": "Con Colbert Rd", "fullnamelocalized": "", "latitude": "53.3431811111", "longitude": "-6.315365", "operators": [{"name": "bac", "operatortype": 1, "routes": ["67X"]}]}, {"stopid": "2722", "displaystopid": "2722", "shortname": "Con Colbert Rd", "shortnamelocalized": "Br Choinn Colbaird", "fullname": "Con Colbert Rd", "fullnamelocalized": "", "latitude": "53.3434388889", "longitude": "-6.31138", "operators": [{"name": "bac", "operatortype": 1, "routes": ["67X"]}]}, {"stopid": "4413", "displaystopid": "4413", "shortname": "St. John's Road", "shortnamelocalized": "B\u00c3\u00b3thar Eoin", "fullname": "St. John's Road", "fullnamelocalized": "", "latitude": "53.3461619444", "longitude": "-6.2926988889", "operators": [{"name": "bac", "operatortype": 1, "routes": ["67X"]}]}, {"stopid": "1476", "displaystopid": "1476", "shortname": "Wolfe Tone Quay", "shortnamelocalized": "C\u00c3\u00a9 Wolfe Tone", "fullname": "Wolfe Tone Quay", "fullnamelocalized": "", "latitude": "53.3470030556", "longitude": "-6.2846638889", "operators": [{"name": "bac", "operatortype": 1, "routes": ["67X"]}]}, {"stopid": "7453", "displaystopid": "7453", "shortname": "Arran Quay", "shortnamelocalized": "C\u00c3\u00a9 \u00c3\u0081rann", "fullname": "Arran Quay", "fullnamelocalized": "", "latitude": "53.3463380556", "longitude": "-6.2783780556", "operators": [{"name": "bac", "operatortype": 1, "routes": ["67X"]}]}, {"stopid": "1478", "displaystopid": "1478", "shortname": "Inns Quay", "shortnamelocalized": "C\u00c3\u00a9 na n\u00c3\u201csta\u00c3\u00ad", "fullname": "Inns Quay", "fullnamelocalized": "", "latitude": "53.3456480556", "longitude": "-6.272935", "operators": [{"name": "bac", "operatortype": 1, "routes": ["67X"]}]}, {"stopid": "1479", "displaystopid": "1479", "shortname": "Ormond Quay", "shortnamelocalized": "C\u00c3\u00a9 Urumhan", "fullname": "Ormond Quay", "fullnamelocalized": "", "latitude": "53.3459130556", "longitude": "-6.2692330556", "operators": [{"name": "bac", "operatortype": 1, "routes": ["67X"]}]}, {"stopid": "315", "displaystopid": "315", "shortname": "Bachelors Walk", "shortnamelocalized": "Si\u00c3\u00bal\u00c3\u00a1n Bhaitsil\u00c3\u00a9ir", "fullname": "Bachelors Walk", "fullnamelocalized": "", "latitude": "53.3469938889", "longitude": "-6.2618161111", "operators": [{"name": "bac", "operatortype": 1, "routes": ["67X"]}]}, {"stopid": "4495", "displaystopid": "4495", "shortname": "Hawkins Street", "shortnamelocalized": "Sr\u00c3\u00a1id Hawkins", "fullname": "Hawkins Street", "fullnamelocalized": "", "latitude": "53.3461830556", "longitude": "-6.2569661111", "operators": [{"name": "bac", "operatortype": 1, "routes": ["67X"]}]}, {"stopid": "2809", "displaystopid": "2809", "shortname": "Westland Row", "shortnamelocalized": "Rae an Iarthair", "fullname": "Westland Row", "fullnamelocalized": "", "latitude": "53.34303", "longitude": "-6.249845", "operators": [{"name": "bac", "operatortype": 1, "routes": ["67X"]}]}, {"stopid": "2810", "displaystopid": "2810", "shortname": "Merrion Square", "shortnamelocalized": "Cearn\u00c3\u00b3g Mhuirfean", "fullname": "Merrion Square", "fullnamelocalized": "", "latitude": "53.34079", "longitude": "-6.2509830556", "operators": [{"name": "bac", "operatortype": 1, "routes": ["67X"]}]}, {"stopid": "749", "displaystopid": "749", "shortname": "Baggot St", "shortnamelocalized": "Sr Bhag\u00c3\u00b3id", "fullname": "Baggot St", "fullnamelocalized": "", "latitude": "53.3375588889", "longitude": "-6.2508288889", "operators": [{"name": "bac", "operatortype": 1, "routes": ["67X"]}]}, {"stopid": "750", "displaystopid": "750", "shortname": "Baggot St", "shortnamelocalized": "Sr Bhag\u00c3\u00b3id", "fullname": "Baggot St", "fullnamelocalized": "", "latitude": "53.3365730556", "longitude": "-6.24847", "operators": [{"name": "bac", "operatortype": 1, "routes": ["67X"]}]}, {"stopid": "751", "displaystopid": "751", "shortname": "Baggot St", "shortnamelocalized": "Sr Bhag\u00c3\u00b3id", "fullname": "Baggot St", "fullnamelocalized": "", "latitude": "53.33532", "longitude": "-6.246555", "operators": [{"name": "bac", "operatortype": 1, "routes": ["67X"]}]}, {"stopid": "752", "displaystopid": "752", "shortname": "Baggot St", "shortnamelocalized": "Sr Bhag\u00c3\u00b3id", "fullname": "Baggot St", "fullnamelocalized": "", "latitude": "53.3336688889", "longitude": "-6.24444", "operators": [{"name": "bac", "operatortype": 1, "routes": ["67X"]}]}, {"stopid": "753", "displaystopid": "753", "shortname": "Waterloo Road", "shortnamelocalized": "B\u00c3\u00b3thar Waterloo", "fullname": "Waterloo Road", "fullnamelocalized": "", "latitude": "53.3324533333", "longitude": "-6.2435211111", "operators": [{"name": "bac", "operatortype": 1, "routes": ["67X"]}]}, {"stopid": "754", "displaystopid": "754", "shortname": "Waterloo Road", "shortnamelocalized": "B\u00c3\u00b3thar Waterloo", "fullname": "Waterloo Road", "fullnamelocalized": "", "latitude": "53.3307838889", "longitude": "-6.2442802778", "operators": [{"name": "bac", "operatortype": 1, "routes": ["67X"]}]}, {"stopid": "755", "displaystopid": "755", "shortname": "Waterloo Road", "shortnamelocalized": "B\u00c3\u00b3thar Waterloo", "fullname": "Waterloo Road", "fullnamelocalized": "", "latitude": "53.3288280556", "longitude": "-6.2451413889", "operators": [{"name": "bac", "operatortype": 1, "routes": ["67X"]}]}, {"stopid": "756", "displaystopid": "756", "shortname": "Morehampton Road", "shortnamelocalized": "B\u00c3\u00b3thar Morehampton", "fullname": "Morehampton Road", "fullnamelocalized": "", "latitude": "53.32639", "longitude": "-6.2425761111", "operators": [{"name": "bac", "operatortype": 1, "routes": ["67X"]}]}, {"stopid": "757", "displaystopid": "757", "shortname": "Morehampton Road", "shortnamelocalized": "B\u00c3\u00b3thar Morehampton", "fullname": "Morehampton Road", "fullnamelocalized": "", "latitude": "53.324075", "longitude": "-6.2395738889", "operators": [{"name": "bac", "operatortype": 1, "routes": ["67X"]}]}, {"stopid": "758", "displaystopid": "758", "shortname": "Morehampton Road", "shortnamelocalized": "B\u00c3\u00b3thar Morehampton", "fullname": "Morehampton Road", "fullnamelocalized": "", "latitude": "53.3226780556", "longitude": "-6.2376638889", "operators": [{"name": "bac", "operatortype": 1, "routes": ["67X"]}]}, {"stopid": "759", "displaystopid": "759", "shortname": "Donnybrook", "shortnamelocalized": "Domhnach Broc", "fullname": "Donnybrook", "fullnamelocalized": "", "latitude": "53.3203430556", "longitude": "-6.2333238889", "operators": [{"name": "bac", "operatortype": 1, "routes": ["67X"]}]}, {"stopid": "760", "displaystopid": "760", "shortname": "Stillorgan Road", "shortnamelocalized": "B\u00c3\u00b3thar Stigh Lorgan", "fullname": "Stillorgan Road", "fullnamelocalized": "", "latitude": "53.3183238889", "longitude": "-6.23055", "operators": [{"name": "bac", "operatortype": 1, "routes": ["67X"]}]}, {"stopid": "761", "displaystopid": "761", "shortname": "Stillorgan Road", "shortnamelocalized": "B\u00c3\u00b3thar Stigh Lorgan", "fullname": "Stillorgan Road", "fullnamelocalized": "", "latitude": "53.3160911111", "longitude": "-6.2274719444", "operators": [{"name": "bac", "operatortype": 1, "routes": ["67X"]}]}, {"stopid": "762", "displaystopid": "762", "shortname": "RTE", "shortnamelocalized": "B\u00c3\u00b3thar Stigh Lorgan", "fullname": "RTE", "fullnamelocalized": "", "latitude": "53.3145161111", "longitude": "-6.2243619444", "operators": [{"name": "bac", "operatortype": 1, "routes": ["67X"]}]}, {"stopid": "763", "displaystopid": "763", "shortname": "Stillorgan Road", "shortnamelocalized": "B\u00c3\u00b3thar Stigh Lorgan", "fullname": "Stillorgan Road", "fullnamelocalized": "", "latitude": "53.3123211111", "longitude": "-6.2211380556", "operators": [{"name": "bac", "operatortype": 1, "routes": ["67X"]}]}, {"stopid": "4952", "displaystopid": "4952", "shortname": "UCD", "shortnamelocalized": "UCD", "fullname": "UCD", "fullnamelocalized": "", "latitude": "53.3049488889", "longitude": "-6.2168269444", "operators": [{"name": "bac", "operatortype": 1, "routes": ["67X"]}]}]}, {"operator": "bac", "origin": "Merrion Square", "originlocalized": "Cearn\u00f3g Mhuirfean", "destination": "Straffan Rd", "destinationlocalized": "Straffan Rd", "lastupdated": "29/06/2020 07:43:40", "stops": [{"stopid": "7391", "displaystopid": "7391", "shortname": "Merrion Square", "shortnamelocalized": "Cearn\u00c3\u00b3g Mhuirfean", "fullname": "Merrion Square", "fullnamelocalized": "", "latitude": "53.3390969444", "longitude": "-6.2500130556", "operators": [{"name": "bac", "operatortype": 1, "routes": ["67X"]}]}, {"stopid": "7587", "displaystopid": "7587", "shortname": "Pearse Street", "shortnamelocalized": "Sr\u00c3\u00a1id an Phiarsaigh", "fullname": "Pearse Street", "fullnamelocalized": "", "latitude": "53.3445361111", "longitude": "-6.2516461111", "operators": [{"name": "bac", "operatortype": 1, "routes": ["67X"]}]}, {"stopid": "345", "displaystopid": "345", "shortname": "Pearse Street", "shortnamelocalized": "Sr\u00c3\u00a1id an Phiarsaigh", "fullname": "Pearse Street", "fullnamelocalized": "", "latitude": "53.345485", "longitude": "-6.2562661111", "operators": [{"name": "bac", "operatortype": 1, "routes": ["67X"]}]}, {"stopid": "318", "displaystopid": "318", "shortname": "Westmoreland Street", "shortnamelocalized": "Sr\u00c3\u00a1id Westmoreland", "fullname": "Westmoreland Street", "fullnamelocalized": "", "latitude": "53.3463011111", "longitude": "-6.2590788889", "operators": [{"name": "bac", "operatortype": 1, "routes": ["67X"]}]}, {"stopid": "312", "displaystopid": "312", "shortname": "Wellington Quay", "shortnamelocalized": "C\u00c3\u00a9 Wellington", "fullname": "Wellington Quay", "fullnamelocalized": "", "latitude": "53.34547", "longitude": "-6.2661919444", "operators": [{"name": "bac", "operatortype": 1, "routes": ["67X"]}]}, {"stopid": "1444", "displaystopid": "1444", "shortname": "Merchant's Quay", "shortnamelocalized": "C\u00c3\u00a9 na gCeannaithe", "fullname": "Merchant's Quay", "fullnamelocalized": "", "latitude": "53.3451188889", "longitude": "-6.2737388889", "operators": [{"name": "bac", "operatortype": 1, "routes": ["67X"]}]}, {"stopid": "1445", "displaystopid": "1445", "shortname": "Ushers Quay", "shortnamelocalized": "C\u00c3\u00a9 Uis\u00c3\u00a9ir", "fullname": "Ushers Quay", "fullnamelocalized": "", "latitude": "53.345675", "longitude": "-6.2782838889", "operators": [{"name": "bac", "operatortype": 1, "routes": ["67X"]}]}, {"stopid": "1447", "displaystopid": "1447", "shortname": "Victoria Quay", "shortnamelocalized": "C\u00c3\u00a9 Victoria", "fullname": "Victoria Quay", "fullnamelocalized": "", "latitude": "53.3466280556", "longitude": "-6.2881669444", "operators": [{"name": "bac", "operatortype": 1, "routes": ["67X"]}]}, {"stopid": "2637", "displaystopid": "2637", "shortname": "St. John's Road", "shortnamelocalized": "B\u00c3\u00b3thar Eoin", "fullname": "St. John's Road", "fullnamelocalized": "", "latitude": "53.3458861111", "longitude": "-6.2938380556", "operators": [{"name": "bac", "operatortype": 1, "routes": ["67X"]}]}, {"stopid": "2721", "displaystopid": "2721", "shortname": "Con Colbert Rd", "shortnamelocalized": "Br Choinn Colbaird", "fullname": "Con Colbert Rd", "fullnamelocalized": "", "latitude": "53.3432730556", "longitude": "-6.3104880556", "operators": [{"name": "bac", "operatortype": 1, "routes": ["67X"]}]}, {"stopid": "7012", "displaystopid": "7012", "shortname": "Con Colbert Rd", "shortnamelocalized": "Br Choinn Colbaird", "fullname": "Con Colbert Rd", "fullnamelocalized": "", "latitude": "53.3429561111", "longitude": "-6.3153519444", "operators": [{"name": "bac", "operatortype": 1, "routes": ["67X"]}]}, {"stopid": "2201", "displaystopid": "2201", "shortname": "Lucan Road", "shortnamelocalized": "B\u00c3\u00b3thar Leamhc\u00c3\u00a1in", "fullname": "Lucan Road", "fullnamelocalized": "", "latitude": "53.3532738889", "longitude": "-6.3645711111", "operators": [{"name": "bac", "operatortype": 1, "routes": ["67X"]}]}, {"stopid": "4401", "displaystopid": "4401", "shortname": "Lucan Road", "shortnamelocalized": "B\u00c3\u00b3thar Leamhc\u00c3\u00a1in", "fullname": "Lucan Road", "fullnamelocalized": "", "latitude": "53.3547555556", "longitude": "-6.3717102778", "operators": [{"name": "bac", "operatortype": 1, "routes": ["67X"]}]}, {"stopid": "2213", "displaystopid": "2213", "shortname": "Lucan Road", "shortnamelocalized": "B\u00c3\u00b3thar Leamhc\u00c3\u00a1in", "fullname": "Lucan Road", "fullnamelocalized": "", "latitude": "53.3557111111", "longitude": "-6.39203", "operators": [{"name": "bac", "operatortype": 1, "routes": ["67X"]}]}, {"stopid": "2214", "displaystopid": "2214", "shortname": "Lucan Road", "shortnamelocalized": "B\u00c3\u00b3thar Leamhc\u00c3\u00a1in", "fullname": "Lucan Road", "fullnamelocalized": "", "latitude": "53.3560888889", "longitude": "-6.3999180556", "operators": [{"name": "bac", "operatortype": 1, "routes": ["67X"]}]}, {"stopid": "2215", "displaystopid": "2215", "shortname": "Lucan Road", "shortnamelocalized": "B\u00c3\u00b3thar Leamhc\u00c3\u00a1in", "fullname": "Lucan Road", "fullnamelocalized": "", "latitude": "53.3583030556", "longitude": "-6.4092769444", "operators": [{"name": "bac", "operatortype": 1, "routes": ["67X"]}]}, {"stopid": "7184", "displaystopid": "7184", "shortname": "Lucan Bypass", "shortnamelocalized": "Seachr\u00c3\u00b3d Leamhc\u00c3\u00a1in", "fullname": "Lucan Bypass", "fullnamelocalized": "", "latitude": "53.352125", "longitude": "-6.4361519444", "operators": [{"name": "bac", "operatortype": 1, "routes": ["67X"]}]}, {"stopid": "7050", "displaystopid": "7050", "shortname": "Lucan Bypass", "shortnamelocalized": "Seachr\u00c3\u00b3d Leamhc\u00c3\u00a1in", "fullname": "Lucan Bypass", "fullnamelocalized": "", "latitude": "53.3509430556", "longitude": "-6.4510980556", "operators": [{"name": "bac", "operatortype": 1, "routes": ["67X"]}]}, {"stopid": "7185", "displaystopid": "7185", "shortname": "Lucan Bypass", "shortnamelocalized": "Seachr\u00c3\u00b3d Leamhc\u00c3\u00a1in", "fullname": "Lucan Bypass", "fullnamelocalized": "", "latitude": "53.3547611111", "longitude": "-6.4609019444", "operators": [{"name": "bac", "operatortype": 1, "routes": ["67X"]}]}, {"stopid": "7186", "displaystopid": "7186", "shortname": "Leixlip Rd", "shortnamelocalized": "Br L\u00c3\u00a9im an Bhrad\u00c3\u00a1in", "fullname": "Leixlip Rd", "fullnamelocalized": "", "latitude": "53.3567230556", "longitude": "-6.465285", "operators": [{"name": "bac", "operatortype": 1, "routes": ["67X"]}]}, {"stopid": "7187", "displaystopid": "7187", "shortname": "Leixlip Rd", "shortnamelocalized": "Br L\u00c3\u00a9im an Bhrad\u00c3\u00a1in", "fullname": "Leixlip Rd", "fullnamelocalized": "", "latitude": "53.3575619444", "longitude": "-6.4676161111", "operators": [{"name": "bac", "operatortype": 1, "routes": ["67X"]}]}, {"stopid": "3947", "displaystopid": "3947", "shortname": "Leixlip Rd", "shortnamelocalized": "Br L\u00c3\u00a9im an Bhrad\u00c3\u00a1in", "fullname": "Leixlip Rd", "fullnamelocalized": "", "latitude": "53.3581580556", "longitude": "-6.4732288889", "operators": [{"name": "bac", "operatortype": 1, "routes": ["67X"]}]}, {"stopid": "3892", "displaystopid": "3892", "shortname": "Celbridge Rd", "shortnamelocalized": "Br Chill Droichid", "fullname": "Celbridge Rd", "fullnamelocalized": "", "latitude": "53.3561361111", "longitude": "-6.4751430556", "operators": [{"name": "bac", "operatortype": 1, "routes": ["67X"]}]}, {"stopid": "3893", "displaystopid": "3893", "shortname": "Celbridge Rd", "shortnamelocalized": "Br Chill Droichid", "fullname": "Celbridge Rd", "fullnamelocalized": "", "latitude": "53.3530861111", "longitude": "-6.4807630556", "operators": [{"name": "bac", "operatortype": 1, "routes": ["67X"]}]}, {"stopid": "3895", "displaystopid": "3895", "shortname": "Celbridge Rd", "shortnamelocalized": "Br Chill Droichid", "fullname": "Celbridge Rd", "fullnamelocalized": "", "latitude": "53.348475", "longitude": "-6.4902480556", "operators": [{"name": "bac", "operatortype": 1, "routes": ["67X"]}]}, {"stopid": "3896", "displaystopid": "3896", "shortname": "Celbridge Rd", "shortnamelocalized": "Br Chill Droichid", "fullname": "Celbridge Rd", "fullnamelocalized": "", "latitude": "53.346885", "longitude": "-6.4946480556", "operators": [{"name": "bac", "operatortype": 1, "routes": ["67X"]}]}, {"stopid": "3897", "displaystopid": "3897", "shortname": "Celbridge Rd", "shortnamelocalized": "Br Chill Droichid", "fullname": "Celbridge Rd", "fullnamelocalized": "", "latitude": "53.3458738889", "longitude": "-6.4997330556", "operators": [{"name": "bac", "operatortype": 1, "routes": ["67X"]}]}, {"stopid": "3898", "displaystopid": "3898", "shortname": "Celbridge Rd", "shortnamelocalized": "Br Chill Droichid", "fullname": "Celbridge Rd", "fullnamelocalized": "", "latitude": "53.3453211111", "longitude": "-6.5021411111", "operators": [{"name": "bac", "operatortype": 1, "routes": ["67X"]}]}, {"stopid": "3899", "displaystopid": "3899", "shortname": "Dublin Rd", "shortnamelocalized": "Br Bhaile \u00c3\u0081tha Clia", "fullname": "Dublin Rd", "fullnamelocalized": "", "latitude": "53.344035", "longitude": "-6.5083588889", "operators": [{"name": "bac", "operatortype": 1, "routes": ["67X"]}]}, {"stopid": "3900", "displaystopid": "3900", "shortname": "Dublin Rd", "shortnamelocalized": "Br Bhaile \u00c3\u0081tha Clia", "fullname": "Dublin Rd", "fullnamelocalized": "", "latitude": "53.3434011111", "longitude": "-6.511585", "operators": [{"name": "bac", "operatortype": 1, "routes": ["67X"]}]}, {"stopid": "3901", "displaystopid": "3901", "shortname": "Dublin Rd", "shortnamelocalized": "Br Bhaile \u00c3\u0081tha Clia", "fullname": "Dublin Rd", "fullnamelocalized": "", "latitude": "53.34245", "longitude": "-6.5160588889", "operators": [{"name": "bac", "operatortype": 1, "routes": ["67X"]}]}, {"stopid": "3902", "displaystopid": "3902", "shortname": "Dublin Rd", "shortnamelocalized": "Br Chill Droichid", "fullname": "Dublin Rd", "fullnamelocalized": "", "latitude": "53.3418430556", "longitude": "-6.51901", "operators": [{"name": "bac", "operatortype": 1, "routes": ["67X"]}]}, {"stopid": "3904", "displaystopid": "3904", "shortname": "Dublin Rd", "shortnamelocalized": "Br Bhaile \u00c3\u0081tha Clia", "fullname": "Dublin Rd", "fullnamelocalized": "", "latitude": "53.3399319444", "longitude": "-6.5282380556", "operators": [{"name": "bac", "operatortype": 1, "routes": ["67X"]}]}, {"stopid": "3905", "displaystopid": "3905", "shortname": "Dublin Rd", "shortnamelocalized": "Br Bhaile \u00c3\u0081tha Clia", "fullname": "Dublin Rd", "fullnamelocalized": "", "latitude": "53.33789", "longitude": "-6.5378330556", "operators": [{"name": "bac", "operatortype": 1, "routes": ["67X"]}]}, {"stopid": "3906", "displaystopid": "3906", "shortname": "Celbridge Main St", "shortnamelocalized": "Sr Mh\u00c3\u00b3r Chill Droic", "fullname": "Celbridge Main St", "fullnamelocalized": "", "latitude": "53.3391561111", "longitude": "-6.5391438889", "operators": [{"name": "bac", "operatortype": 1, "routes": ["67X"]}]}, {"stopid": "3907", "displaystopid": "3907", "shortname": "Celbridge Main St", "shortnamelocalized": "Cill Droichid", "fullname": "Celbridge Main St", "fullnamelocalized": "", "latitude": "53.3408419444", "longitude": "-6.537615", "operators": [{"name": "bac", "operatortype": 1, "routes": ["67X"]}]}, {"stopid": "3909", "displaystopid": "3909", "shortname": "Maynooth Road", "shortnamelocalized": "B\u00c3\u00b3thar Mhaigh Nuad", "fullname": "Maynooth Road", "fullnamelocalized": "", "latitude": "53.3467861111", "longitude": "-6.5419088889", "operators": [{"name": "bac", "operatortype": 1, "routes": ["67X"]}]}, {"stopid": "5118", "displaystopid": "5118", "shortname": "Maynooth Road", "shortnamelocalized": "B\u00c3\u00b3thar Mhaigh Nuad", "fullname": "Maynooth Road", "fullnamelocalized": "", "latitude": "53.350515", "longitude": "-6.544955", "operators": [{"name": "bac", "operatortype": 1, "routes": ["67X"]}]}, {"stopid": "3910", "displaystopid": "3910", "shortname": "Maynooth Road", "shortnamelocalized": "B\u00c3\u00b3thar Mhaigh Nuad", "fullname": "Maynooth Road", "fullnamelocalized": "", "latitude": "53.3522638889", "longitude": "-6.5468719444", "operators": [{"name": "bac", "operatortype": 1, "routes": ["67X"]}]}, {"stopid": "3911", "displaystopid": "3911", "shortname": "Maynooth Road", "shortnamelocalized": "B\u00c3\u00b3thar Mhaigh Nuad", "fullname": "Maynooth Road", "fullnamelocalized": "", "latitude": "53.3542688889", "longitude": "-6.5471261111", "operators": [{"name": "bac", "operatortype": 1, "routes": ["67X"]}]}, {"stopid": "3912", "displaystopid": "3912", "shortname": "Maynooth Road", "shortnamelocalized": "B\u00c3\u00b3thar Mhaigh Nuad", "fullname": "Maynooth Road", "fullnamelocalized": "", "latitude": "53.3590738889", "longitude": "-6.551695", "operators": [{"name": "bac", "operatortype": 1, "routes": ["67X"]}]}, {"stopid": "3913", "displaystopid": "3913", "shortname": "Maynooth Road", "shortnamelocalized": "B\u00c3\u00b3thar Mhaigh Nuad", "fullname": "Maynooth Road", "fullnamelocalized": "", "latitude": "53.3620988889", "longitude": "-6.5567061111", "operators": [{"name": "bac", "operatortype": 1, "routes": ["67X"]}]}, {"stopid": "3914", "displaystopid": "3914", "shortname": "Celbridge Rd", "shortnamelocalized": "Br Chill Droichid", "fullname": "Celbridge Rd", "fullnamelocalized": "", "latitude": "53.3670061111", "longitude": "-6.5670419444", "operators": [{"name": "bac", "operatortype": 1, "routes": ["67X"]}]}, {"stopid": "3925", "displaystopid": "3925", "shortname": "Celbridge Rd", "shortnamelocalized": "Br Chill Droichid", "fullname": "Celbridge Rd", "fullnamelocalized": "", "latitude": "53.3725769444", "longitude": "-6.5846180556", "operators": [{"name": "bac", "operatortype": 1, "routes": ["67X"]}]}, {"stopid": "3008", "displaystopid": "3008", "shortname": "Celbridge Rd", "shortnamelocalized": "Br Chill Droichid", "fullname": "Celbridge Rd", "fullnamelocalized": "", "latitude": "53.3739969444", "longitude": "-6.5864711111", "operators": [{"name": "bac", "operatortype": 1, "routes": ["67X"]}]}, {"stopid": "6089", "displaystopid": "6089", "shortname": "Straffan Rd", "shortnamelocalized": "Br Theach Sraf\u00c3\u00a1in", "fullname": "Straffan Rd", "fullnamelocalized": "", "latitude": "53.376805", "longitude": "-6.587585", "operators": [{"name": "bac", "operatortype": 1, "routes": ["67X"]}]}]}, {"operator": "bac", "origin": "UCD", "originlocalized": "Ollscoil B\u00c1C", "destination": "Straffan Rd", "destinationlocalized": "Straffan Rd", "lastupdated": "29/06/2020 07:43:36", "stops": [{"stopid": "4952", "displaystopid": "4952", "shortname": "UCD", "shortnamelocalized": "UCD", "fullname": "UCD", "fullnamelocalized": "", "latitude": "53.3049488889", "longitude": "-6.2168269444", "operators": [{"name": "bac", "operatortype": 1, "routes": ["67X"]}]}, {"stopid": "768", "displaystopid": "768", "shortname": "Stillorgan Road", "shortnamelocalized": "B\u00c3\u00b3thar Stigh Lorgan", "fullname": "Stillorgan Road", "fullnamelocalized": "", "latitude": "53.3094661111", "longitude": "-6.21888", "operators": [{"name": "bac", "operatortype": 1, "routes": ["67X"]}]}, {"stopid": "769", "displaystopid": "769", "shortname": "Stillorgan Road", "shortnamelocalized": "B\u00c3\u00b3thar Stigh Lorgan", "fullname": "Stillorgan Road", "fullnamelocalized": "", "latitude": "53.3118938889", "longitude": "-6.2213169444", "operators": [{"name": "bac", "operatortype": 1, "routes": ["67X"]}]}, {"stopid": "770", "displaystopid": "770", "shortname": "Stillorgan Road", "shortnamelocalized": "B\u00c3\u00b3thar Stigh Lorgan", "fullname": "Stillorgan Road", "fullnamelocalized": "", "latitude": "53.314675", "longitude": "-6.2257830556", "operators": [{"name": "bac", "operatortype": 1, "routes": ["67X"]}]}, {"stopid": "771", "displaystopid": "771", "shortname": "Stillorgan Road", "shortnamelocalized": "B\u00c3\u00b3thar Stigh Lorgan", "fullname": "Stillorgan Road", "fullnamelocalized": "", "latitude": "53.3158769444", "longitude": "-6.2277630556", "operators": [{"name": "bac", "operatortype": 1, "routes": ["67X"]}]}, {"stopid": "772", "displaystopid": "772", "shortname": "Stillorgan Road", "shortnamelocalized": "B\u00c3\u00b3thar Stigh Lorgan", "fullname": "Stillorgan Road", "fullnamelocalized": "", "latitude": "53.3184980556", "longitude": "-6.231315", "operators": [{"name": "bac", "operatortype": 1, "routes": ["67X"]}]}, {"stopid": "773", "displaystopid": "773", "shortname": "Donnybrook Rd", "shortnamelocalized": "Br Dhomhnach Broc", "fullname": "Donnybrook Rd", "fullnamelocalized": "", "latitude": "53.3199119444", "longitude": "-6.2332569444", "operators": [{"name": "bac", "operatortype": 1, "routes": ["67X"]}]}, {"stopid": "774", "displaystopid": "774", "shortname": "Donnybrook", "shortnamelocalized": "Domhnach Broc", "fullname": "Donnybrook", "fullnamelocalized": "", "latitude": "53.3216038889", "longitude": "-6.2354838889", "operators": [{"name": "bac", "operatortype": 1, "routes": ["67X"]}]}, {"stopid": "775", "displaystopid": "775", "shortname": "Morehampton Road", "shortnamelocalized": "B\u00c3\u00b3thar Morehampton", "fullname": "Morehampton Road", "fullnamelocalized": "", "latitude": "53.3234811111", "longitude": "-6.2390638889", "operators": [{"name": "bac", "operatortype": 1, "routes": ["67X"]}]}, {"stopid": "776", "displaystopid": "776", "shortname": "Morehampton Road", "shortnamelocalized": "B\u00c3\u00b3thar Morehampton", "fullname": "Morehampton Road", "fullnamelocalized": "", "latitude": "53.32549", "longitude": "-6.2418038889", "operators": [{"name": "bac", "operatortype": 1, "routes": ["67X"]}]}, {"stopid": "777", "displaystopid": "777", "shortname": "Morehampton Road", "shortnamelocalized": "B\u00c3\u00b3thar Morehampton", "fullname": "Morehampton Road", "fullnamelocalized": "", "latitude": "53.3269438889", "longitude": "-6.2436588889", "operators": [{"name": "bac", "operatortype": 1, "routes": ["67X"]}]}, {"stopid": "779", "displaystopid": "779", "shortname": "Waterloo Road", "shortnamelocalized": "B\u00c3\u00b3thar Waterloo", "fullname": "Waterloo Road", "fullnamelocalized": "", "latitude": "53.3286886111", "longitude": "-6.2454475", "operators": [{"name": "bac", "operatortype": 1, "routes": ["67X"]}]}, {"stopid": "780", "displaystopid": "780", "shortname": "Waterloo Road", "shortnamelocalized": "B\u00c3\u00b3thar Waterloo", "fullname": "Waterloo Road", "fullnamelocalized": "", "latitude": "53.3310633333", "longitude": "-6.2443438889", "operators": [{"name": "bac", "operatortype": 1, "routes": ["67X"]}]}, {"stopid": "781", "displaystopid": "781", "shortname": "Waterloo Road", "shortnamelocalized": "B\u00c3\u00b3thar Waterloo", "fullname": "Waterloo Road", "fullnamelocalized": "", "latitude": "53.3326263889", "longitude": "-6.2436641667", "operators": [{"name": "bac", "operatortype": 1, "routes": ["67X"]}]}, {"stopid": "782", "displaystopid": "782", "shortname": "Baggot St", "shortnamelocalized": "Sr Bhag\u00c3\u00b3id", "fullname": "Baggot St", "fullnamelocalized": "", "latitude": "53.33358", "longitude": "-6.24458", "operators": [{"name": "bac", "operatortype": 1, "routes": ["67X"]}]}, {"stopid": "783", "displaystopid": "783", "shortname": "Baggot St", "shortnamelocalized": "Sr Bhag\u00c3\u00b3id", "fullname": "Baggot St", "fullnamelocalized": "", "latitude": "53.3353119444", "longitude": "-6.246965", "operators": [{"name": "bac", "operatortype": 1, "routes": ["67X"]}]}, {"stopid": "784", "displaystopid": "784", "shortname": "Baggot St", "shortnamelocalized": "Sr Bhag\u00c3\u00b3id", "fullname": "Baggot St", "fullnamelocalized": "", "latitude": "53.3364138889", "longitude": "-6.2486180556", "operators": [{"name": "bac", "operatortype": 1, "routes": ["67X"]}]}, {"stopid": "785", "displaystopid": "785", "shortname": "Pembroke St", "shortnamelocalized": "Sr Pheambr\u00c3\u00b3g", "fullname": "Pembroke St", "fullnamelocalized": "", "latitude": "53.3370969444", "longitude": "-6.2517338889", "operators": [{"name": "bac", "operatortype": 1, "routes": ["67X"]}]}, {"stopid": "786", "displaystopid": "786", "shortname": "Leeson Street", "shortnamelocalized": "Sr L\u00c3\u00adosain \u00c3\u008docht", "fullname": "Leeson Street", "fullnamelocalized": "", "latitude": "53.3351980556", "longitude": "-6.2561169444", "operators": [{"name": "bac", "operatortype": 1, "routes": ["67X"]}]}, {"stopid": "791", "displaystopid": "791", "shortname": "St. Stephen's Green", "shortnamelocalized": "Faiche Stiabhna", "fullname": "St. Stephen's Green", "fullnamelocalized": "", "latitude": "53.339", "longitude": "-6.2571", "operators": [{"name": "bac", "operatortype": 1, "routes": ["67X"]}]}, {"stopid": "7585", "displaystopid": "7585", "shortname": "Leinster Street Sou", "shortnamelocalized": "Sr\u00c3\u00a1id Laighean Thea", "fullname": "Leinster Street South", "fullnamelocalized": "", "latitude": "53.3420169444", "longitude": "-6.2534238889", "operators": [{"name": "bac", "operatortype": 1, "routes": ["67X"]}]}, {"stopid": "7587", "displaystopid": "7587", "shortname": "Pearse Street", "shortnamelocalized": "Sr\u00c3\u00a1id an Phiarsaigh", "fullname": "Pearse Street", "fullnamelocalized": "", "latitude": "53.3445361111", "longitude": "-6.2516461111", "operators": [{"name": "bac", "operatortype": 1, "routes": ["67X"]}]}, {"stopid": "345", "displaystopid": "345", "shortname": "Pearse Street", "shortnamelocalized": "Sr\u00c3\u00a1id an Phiarsaigh", "fullname": "Pearse Street", "fullnamelocalized": "", "latitude": "53.345485", "longitude": "-6.2562661111", "operators": [{"name": "bac", "operatortype": 1, "routes": ["67X"]}]}, {"stopid": "318", "displaystopid": "318", "shortname": "Westmoreland Street", "shortnamelocalized": "Sr\u00c3\u00a1id Westmoreland", "fullname": "Westmoreland Street", "fullnamelocalized": "", "latitude": "53.3463011111", "longitude": "-6.2590788889", "operators": [{"name": "bac", "operatortype": 1, "routes": ["67X"]}]}, {"stopid": "312", "displaystopid": "312", "shortname": "Wellington Quay", "shortnamelocalized": "C\u00c3\u00a9 Wellington", "fullname": "Wellington Quay", "fullnamelocalized": "", "latitude": "53.34547", "longitude": "-6.2661919444", "operators": [{"name": "bac", "operatortype": 1, "routes": ["67X"]}]}, {"stopid": "1444", "displaystopid": "1444", "shortname": "Merchant's Quay", "shortnamelocalized": "C\u00c3\u00a9 na gCeannaithe", "fullname": "Merchant's Quay", "fullnamelocalized": "", "latitude": "53.3451188889", "longitude": "-6.2737388889", "operators": [{"name": "bac", "operatortype": 1, "routes": ["67X"]}]}, {"stopid": "1445", "displaystopid": "1445", "shortname": "Ushers Quay", "shortnamelocalized": "C\u00c3\u00a9 Uis\u00c3\u00a9ir", "fullname": "Ushers Quay", "fullnamelocalized": "", "latitude": "53.345675", "longitude": "-6.2782838889", "operators": [{"name": "bac", "operatortype": 1, "routes": ["67X"]}]}, {"stopid": "1447", "displaystopid": "1447", "shortname": "Victoria Quay", "shortnamelocalized": "C\u00c3\u00a9 Victoria", "fullname": "Victoria Quay", "fullnamelocalized": "", "latitude": "53.3466280556", "longitude": "-6.2881669444", "operators": [{"name": "bac", "operatortype": 1, "routes": ["67X"]}]}, {"stopid": "2637", "displaystopid": "2637", "shortname": "St. John's Road", "shortnamelocalized": "B\u00c3\u00b3thar Eoin", "fullname": "St. John's Road", "fullnamelocalized": "", "latitude": "53.3458861111", "longitude": "-6.2938380556", "operators": [{"name": "bac", "operatortype": 1, "routes": ["67X"]}]}, {"stopid": "2721", "displaystopid": "2721", "shortname": "Con Colbert Rd", "shortnamelocalized": "Br Choinn Colbaird", "fullname": "Con Colbert Rd", "fullnamelocalized": "", "latitude": "53.3432730556", "longitude": "-6.3104880556", "operators": [{"name": "bac", "operatortype": 1, "routes": ["67X"]}]}, {"stopid": "7012", "displaystopid": "7012", "shortname": "Con Colbert Rd", "shortnamelocalized": "Br Choinn Colbaird", "fullname": "Con Colbert Rd", "fullnamelocalized": "", "latitude": "53.3429561111", "longitude": "-6.3153519444", "operators": [{"name": "bac", "operatortype": 1, "routes": ["67X"]}]}, {"stopid": "2201", "displaystopid": "2201", "shortname": "Lucan Road", "shortnamelocalized": "B\u00c3\u00b3thar Leamhc\u00c3\u00a1in", "fullname": "Lucan Road", "fullnamelocalized": "", "latitude": "53.3532738889", "longitude": "-6.3645711111", "operators": [{"name": "bac", "operatortype": 1, "routes": ["67X"]}]}, {"stopid": "4401", "displaystopid": "4401", "shortname": "Lucan Road", "shortnamelocalized": "B\u00c3\u00b3thar Leamhc\u00c3\u00a1in", "fullname": "Lucan Road", "fullnamelocalized": "", "latitude": "53.3547555556", "longitude": "-6.3717102778", "operators": [{"name": "bac", "operatortype": 1, "routes": ["67X"]}]}, {"stopid": "2213", "displaystopid": "2213", "shortname": "Lucan Road", "shortnamelocalized": "B\u00c3\u00b3thar Leamhc\u00c3\u00a1in", "fullname": "Lucan Road", "fullnamelocalized": "", "latitude": "53.3557111111", "longitude": "-6.39203", "operators": [{"name": "bac", "operatortype": 1, "routes": ["67X"]}]}, {"stopid": "2214", "displaystopid": "2214", "shortname": "Lucan Road", "shortnamelocalized": "B\u00c3\u00b3thar Leamhc\u00c3\u00a1in", "fullname": "Lucan Road", "fullnamelocalized": "", "latitude": "53.3560888889", "longitude": "-6.3999180556", "operators": [{"name": "bac", "operatortype": 1, "routes": ["67X"]}]}, {"stopid": "2215", "displaystopid": "2215", "shortname": "Lucan Road", "shortnamelocalized": "B\u00c3\u00b3thar Leamhc\u00c3\u00a1in", "fullname": "Lucan Road", "fullnamelocalized": "", "latitude": "53.3583030556", "longitude": "-6.4092769444", "operators": [{"name": "bac", "operatortype": 1, "routes": ["67X"]}]}, {"stopid": "7184", "displaystopid": "7184", "shortname": "Lucan Bypass", "shortnamelocalized": "Seachr\u00c3\u00b3d Leamhc\u00c3\u00a1in", "fullname": "Lucan Bypass", "fullnamelocalized": "", "latitude": "53.352125", "longitude": "-6.4361519444", "operators": [{"name": "bac", "operatortype": 1, "routes": ["67X"]}]}, {"stopid": "7050", "displaystopid": "7050", "shortname": "Lucan Bypass", "shortnamelocalized": "Seachr\u00c3\u00b3d Leamhc\u00c3\u00a1in", "fullname": "Lucan Bypass", "fullnamelocalized": "", "latitude": "53.3509430556", "longitude": "-6.4510980556", "operators": [{"name": "bac", "operatortype": 1, "routes": ["67X"]}]}, {"stopid": "7185", "displaystopid": "7185", "shortname": "Lucan Bypass", "shortnamelocalized": "Seachr\u00c3\u00b3d Leamhc\u00c3\u00a1in", "fullname": "Lucan Bypass", "fullnamelocalized": "", "latitude": "53.3547611111", "longitude": "-6.4609019444", "operators": [{"name": "bac", "operatortype": 1, "routes": ["67X"]}]}, {"stopid": "7186", "displaystopid": "7186", "shortname": "Leixlip Rd", "shortnamelocalized": "Br L\u00c3\u00a9im an Bhrad\u00c3\u00a1in", "fullname": "Leixlip Rd", "fullnamelocalized": "", "latitude": "53.3567230556", "longitude": "-6.465285", "operators": [{"name": "bac", "operatortype": 1, "routes": ["67X"]}]}, {"stopid": "7187", "displaystopid": "7187", "shortname": "Leixlip Rd", "shortnamelocalized": "Br L\u00c3\u00a9im an Bhrad\u00c3\u00a1in", "fullname": "Leixlip Rd", "fullnamelocalized": "", "latitude": "53.3575619444", "longitude": "-6.4676161111", "operators": [{"name": "bac", "operatortype": 1, "routes": ["67X"]}]}, {"stopid": "3947", "displaystopid": "3947", "shortname": "Leixlip Rd", "shortnamelocalized": "Br L\u00c3\u00a9im an Bhrad\u00c3\u00a1in", "fullname": "Leixlip Rd", "fullnamelocalized": "", "latitude": "53.3581580556", "longitude": "-6.4732288889", "operators": [{"name": "bac", "operatortype": 1, "routes": ["67X"]}]}, {"stopid": "3892", "displaystopid": "3892", "shortname": "Celbridge Rd", "shortnamelocalized": "Br Chill Droichid", "fullname": "Celbridge Rd", "fullnamelocalized": "", "latitude": "53.3561361111", "longitude": "-6.4751430556", "operators": [{"name": "bac", "operatortype": 1, "routes": ["67X"]}]}, {"stopid": "3893", "displaystopid": "3893", "shortname": "Celbridge Rd", "shortnamelocalized": "Br Chill Droichid", "fullname": "Celbridge Rd", "fullnamelocalized": "", "latitude": "53.3530861111", "longitude": "-6.4807630556", "operators": [{"name": "bac", "operatortype": 1, "routes": ["67X"]}]}, {"stopid": "3895", "displaystopid": "3895", "shortname": "Celbridge Rd", "shortnamelocalized": "Br Chill Droichid", "fullname": "Celbridge Rd", "fullnamelocalized": "", "latitude": "53.348475", "longitude": "-6.4902480556", "operators": [{"name": "bac", "operatortype": 1, "routes": ["67X"]}]}, {"stopid": "3896", "displaystopid": "3896", "shortname": "Celbridge Rd", "shortnamelocalized": "Br Chill Droichid", "fullname": "Celbridge Rd", "fullnamelocalized": "", "latitude": "53.346885", "longitude": "-6.4946480556", "operators": [{"name": "bac", "operatortype": 1, "routes": ["67X"]}]}, {"stopid": "3897", "displaystopid": "3897", "shortname": "Celbridge Rd", "shortnamelocalized": "Br Chill Droichid", "fullname": "Celbridge Rd", "fullnamelocalized": "", "latitude": "53.3458738889", "longitude": "-6.4997330556", "operators": [{"name": "bac", "operatortype": 1, "routes": ["67X"]}]}, {"stopid": "3898", "displaystopid": "3898", "shortname": "Celbridge Rd", "shortnamelocalized": "Br Chill Droichid", "fullname": "Celbridge Rd", "fullnamelocalized": "", "latitude": "53.3453211111", "longitude": "-6.5021411111", "operators": [{"name": "bac", "operatortype": 1, "routes": ["67X"]}]}, {"stopid": "3899", "displaystopid": "3899", "shortname": "Dublin Rd", "shortnamelocalized": "Br Bhaile \u00c3\u0081tha Clia", "fullname": "Dublin Rd", "fullnamelocalized": "", "latitude": "53.344035", "longitude": "-6.5083588889", "operators": [{"name": "bac", "operatortype": 1, "routes": ["67X"]}]}, {"stopid": "3900", "displaystopid": "3900", "shortname": "Dublin Rd", "shortnamelocalized": "Br Bhaile \u00c3\u0081tha Clia", "fullname": "Dublin Rd", "fullnamelocalized": "", "latitude": "53.3434011111", "longitude": "-6.511585", "operators": [{"name": "bac", "operatortype": 1, "routes": ["67X"]}]}, {"stopid": "3901", "displaystopid": "3901", "shortname": "Dublin Rd", "shortnamelocalized": "Br Bhaile \u00c3\u0081tha Clia", "fullname": "Dublin Rd", "fullnamelocalized": "", "latitude": "53.34245", "longitude": "-6.5160588889", "operators": [{"name": "bac", "operatortype": 1, "routes": ["67X"]}]}, {"stopid": "3902", "displaystopid": "3902", "shortname": "Dublin Rd", "shortnamelocalized": "Br Chill Droichid", "fullname": "Dublin Rd", "fullnamelocalized": "", "latitude": "53.3418430556", "longitude": "-6.51901", "operators": [{"name": "bac", "operatortype": 1, "routes": ["67X"]}]}, {"stopid": "3904", "displaystopid": "3904", "shortname": "Dublin Rd", "shortnamelocalized": "Br Bhaile \u00c3\u0081tha Clia", "fullname": "Dublin Rd", "fullnamelocalized": "", "latitude": "53.3399319444", "longitude": "-6.5282380556", "operators": [{"name": "bac", "operatortype": 1, "routes": ["67X"]}]}, {"stopid": "3905", "displaystopid": "3905", "shortname": "Dublin Rd", "shortnamelocalized": "Br Bhaile \u00c3\u0081tha Clia", "fullname": "Dublin Rd", "fullnamelocalized": "", "latitude": "53.33789", "longitude": "-6.5378330556", "operators": [{"name": "bac", "operatortype": 1, "routes": ["67X"]}]}, {"stopid": "3906", "displaystopid": "3906", "shortname": "Celbridge Main St", "shortnamelocalized": "Sr Mh\u00c3\u00b3r Chill Droic", "fullname": "Celbridge Main St", "fullnamelocalized": "", "latitude": "53.3391561111", "longitude": "-6.5391438889", "operators": [{"name": "bac", "operatortype": 1, "routes": ["67X"]}]}, {"stopid": "3907", "displaystopid": "3907", "shortname": "Celbridge Main St", "shortnamelocalized": "Cill Droichid", "fullname": "Celbridge Main St", "fullnamelocalized": "", "latitude": "53.3408419444", "longitude": "-6.537615", "operators": [{"name": "bac", "operatortype": 1, "routes": ["67X"]}]}, {"stopid": "3909", "displaystopid": "3909", "shortname": "Maynooth Road", "shortnamelocalized": "B\u00c3\u00b3thar Mhaigh Nuad", "fullname": "Maynooth Road", "fullnamelocalized": "", "latitude": "53.3467861111", "longitude": "-6.5419088889", "operators": [{"name": "bac", "operatortype": 1, "routes": ["67X"]}]}, {"stopid": "5118", "displaystopid": "5118", "shortname": "Maynooth Road", "shortnamelocalized": "B\u00c3\u00b3thar Mhaigh Nuad", "fullname": "Maynooth Road", "fullnamelocalized": "", "latitude": "53.350515", "longitude": "-6.544955", "operators": [{"name": "bac", "operatortype": 1, "routes": ["67X"]}]}, {"stopid": "3910", "displaystopid": "3910", "shortname": "Maynooth Road", "shortnamelocalized": "B\u00c3\u00b3thar Mhaigh Nuad", "fullname": "Maynooth Road", "fullnamelocalized": "", "latitude": "53.3522638889", "longitude": "-6.5468719444", "operators": [{"name": "bac", "operatortype": 1, "routes": ["67X"]}]}, {"stopid": "3911", "displaystopid": "3911", "shortname": "Maynooth Road", "shortnamelocalized": "B\u00c3\u00b3thar Mhaigh Nuad", "fullname": "Maynooth Road", "fullnamelocalized": "", "latitude": "53.3542688889", "longitude": "-6.5471261111", "operators": [{"name": "bac", "operatortype": 1, "routes": ["67X"]}]}, {"stopid": "3912", "displaystopid": "3912", "shortname": "Maynooth Road", "shortnamelocalized": "B\u00c3\u00b3thar Mhaigh Nuad", "fullname": "Maynooth Road", "fullnamelocalized": "", "latitude": "53.3590738889", "longitude": "-6.551695", "operators": [{"name": "bac", "operatortype": 1, "routes": ["67X"]}]}, {"stopid": "3913", "displaystopid": "3913", "shortname": "Maynooth Road", "shortnamelocalized": "B\u00c3\u00b3thar Mhaigh Nuad", "fullname": "Maynooth Road", "fullnamelocalized": "", "latitude": "53.3620988889", "longitude": "-6.5567061111", "operators": [{"name": "bac", "operatortype": 1, "routes": ["67X"]}]}, {"stopid": "3914", "displaystopid": "3914", "shortname": "Celbridge Rd", "shortnamelocalized": "Br Chill Droichid", "fullname": "Celbridge Rd", "fullnamelocalized": "", "latitude": "53.3670061111", "longitude": "-6.5670419444", "operators": [{"name": "bac", "operatortype": 1, "routes": ["67X"]}]}, {"stopid": "3925", "displaystopid": "3925", "shortname": "Celbridge Rd", "shortnamelocalized": "Br Chill Droichid", "fullname": "Celbridge Rd", "fullnamelocalized": "", "latitude": "53.3725769444", "longitude": "-6.5846180556", "operators": [{"name": "bac", "operatortype": 1, "routes": ["67X"]}]}, {"stopid": "3008", "displaystopid": "3008", "shortname": "Celbridge Rd", "shortnamelocalized": "Br Chill Droichid", "fullname": "Celbridge Rd", "fullnamelocalized": "", "latitude": "53.3739969444", "longitude": "-6.5864711111", "operators": [{"name": "bac", "operatortype": 1, "routes": ["67X"]}]}, {"stopid": "6089", "displaystopid": "6089", "shortname": "Straffan Rd", "shortnamelocalized": "Br Theach Sraf\u00c3\u00a1in", "fullname": "Straffan Rd", "fullnamelocalized": "", "latitude": "53.376805", "longitude": "-6.587585", "operators": [{"name": "bac", "operatortype": 1, "routes": ["67X"]}]}]}, {"operator": "bac", "origin": "UCD Belfield", "originlocalized": "", "destination": "Celbridge / Maynooth", "destinationlocalized": "", "lastupdated": "27/06/2016 09:01:02", "stops": [{"stopid": "1444", "displaystopid": "1444", "shortname": "Merchant's Quay", "shortnamelocalized": "C\u00c3\u00a9 na gCeannaithe", "fullname": "Merchant's Quay", "fullnamelocalized": "", "latitude": "53.3451188889", "longitude": "-6.2737388889", "operators": [{"name": "bac", "operatortype": 1, "routes": ["67X"]}]}, {"stopid": "1445", "displaystopid": "1445", "shortname": "Ushers Quay", "shortnamelocalized": "C\u00c3\u00a9 Uis\u00c3\u00a9ir", "fullname": "Ushers Quay", "fullnamelocalized": "", "latitude": "53.345675", "longitude": "-6.2782838889", "operators": [{"name": "bac", "operatortype": 1, "routes": ["67X"]}]}, {"stopid": "1447", "displaystopid": "1447", "shortname": "Victoria Quay", "shortnamelocalized": "C\u00c3\u00a9 Victoria", "fullname": "Victoria Quay", "fullnamelocalized": "", "latitude": "53.3466280556", "longitude": "-6.2881669444", "operators": [{"name": "bac", "operatortype": 1, "routes": ["67X"]}]}, {"stopid": "318", "displaystopid": "318", "shortname": "Westmoreland Street", "shortnamelocalized": "Sr\u00c3\u00a1id Westmoreland", "fullname": "Westmoreland Street", "fullnamelocalized": "", "latitude": "53.3463011111", "longitude": "-6.2590788889", "operators": [{"name": "bac", "operatortype": 1, "routes": ["67X"]}]}, {"stopid": "3892", "displaystopid": "3892", "shortname": "Celbridge Rd", "shortnamelocalized": "Br Chill Droichid", "fullname": "Celbridge Rd", "fullnamelocalized": "", "latitude": "53.3561361111", "longitude": "-6.4751430556", "operators": [{"name": "bac", "operatortype": 1, "routes": ["67X"]}]}, {"stopid": "3893", "displaystopid": "3893", "shortname": "Celbridge Rd", "shortnamelocalized": "Br Chill Droichid", "fullname": "Celbridge Rd", "fullnamelocalized": "", "latitude": "53.3530861111", "longitude": "-6.4807630556", "operators": [{"name": "bac", "operatortype": 1, "routes": ["67X"]}]}, {"stopid": "3895", "displaystopid": "3895", "shortname": "Celbridge Rd", "shortnamelocalized": "Br Chill Droichid", "fullname": "Celbridge Rd", "fullnamelocalized": "", "latitude": "53.348475", "longitude": "-6.4902480556", "operators": [{"name": "bac", "operatortype": 1, "routes": ["67X"]}]}, {"stopid": "3896", "displaystopid": "3896", "shortname": "Celbridge Rd", "shortnamelocalized": "Br Chill Droichid", "fullname": "Celbridge Rd", "fullnamelocalized": "", "latitude": "53.346885", "longitude": "-6.4946480556", "operators": [{"name": "bac", "operatortype": 1, "routes": ["67X"]}]}, {"stopid": "3897", "displaystopid": "3897", "shortname": "Celbridge Rd", "shortnamelocalized": "Br Chill Droichid", "fullname": "Celbridge Rd", "fullnamelocalized": "", "latitude": "53.3458738889", "longitude": "-6.4997330556", "operators": [{"name": "bac", "operatortype": 1, "routes": ["67X"]}]}, {"stopid": "3898", "displaystopid": "3898", "shortname": "Celbridge Rd", "shortnamelocalized": "Br Chill Droichid", "fullname": "Celbridge Rd", "fullnamelocalized": "", "latitude": "53.3453211111", "longitude": "-6.5021411111", "operators": [{"name": "bac", "operatortype": 1, "routes": ["67X"]}]}, {"stopid": "3899", "displaystopid": "3899", "shortname": "Dublin Rd", "shortnamelocalized": "Br Bhaile \u00c3\u0081tha Clia", "fullname": "Dublin Rd", "fullnamelocalized": "", "latitude": "53.344035", "longitude": "-6.5083588889", "operators": [{"name": "bac", "operatortype": 1, "routes": ["67X"]}]}, {"stopid": "3900", "displaystopid": "3900", "shortname": "Dublin Rd", "shortnamelocalized": "Br Bhaile \u00c3\u0081tha Clia", "fullname": "Dublin Rd", "fullnamelocalized": "", "latitude": "53.3434011111", "longitude": "-6.511585", "operators": [{"name": "bac", "operatortype": 1, "routes": ["67X"]}]}, {"stopid": "3901", "displaystopid": "3901", "shortname": "Dublin Rd", "shortnamelocalized": "Br Bhaile \u00c3\u0081tha Clia", "fullname": "Dublin Rd", "fullnamelocalized": "", "latitude": "53.34245", "longitude": "-6.5160588889", "operators": [{"name": "bac", "operatortype": 1, "routes": ["67X"]}]}, {"stopid": "4401", "displaystopid": "4401", "shortname": "Lucan Road", "shortnamelocalized": "B\u00c3\u00b3thar Leamhc\u00c3\u00a1in", "fullname": "Lucan Road", "fullnamelocalized": "", "latitude": "53.3547555556", "longitude": "-6.3717102778", "operators": [{"name": "bac", "operatortype": 1, "routes": ["67X"]}]}, {"stopid": "7012", "displaystopid": "7012", "shortname": "Con Colbert Rd", "shortnamelocalized": "Br Choinn Colbaird", "fullname": "Con Colbert Rd", "fullnamelocalized": "", "latitude": "53.3429561111", "longitude": "-6.3153519444", "operators": [{"name": "bac", "operatortype": 1, "routes": ["67X"]}]}, {"stopid": "7576", "displaystopid": "7576", "shortname": "Dawson Street", "shortnamelocalized": "", "fullname": "Virtual Stop", "fullnamelocalized": "", "latitude": "53.340604", "longitude": "-6.258494", "operators": [{"name": "bac", "operatortype": 1, "routes": ["67X"]}]}, {"stopid": "2201", "displaystopid": "2201", "shortname": "Lucan Road", "shortnamelocalized": "B\u00c3\u00b3thar Leamhc\u00c3\u00a1in", "fullname": "Lucan Road", "fullnamelocalized": "", "latitude": "53.3532738889", "longitude": "-6.3645711111", "operators": [{"name": "bac", "operatortype": 1, "routes": ["67X"]}]}, {"stopid": "2213", "displaystopid": "2213", "shortname": "Lucan Road", "shortnamelocalized": "B\u00c3\u00b3thar Leamhc\u00c3\u00a1in", "fullname": "Lucan Road", "fullnamelocalized": "", "latitude": "53.3557111111", "longitude": "-6.39203", "operators": [{"name": "bac", "operatortype": 1, "routes": ["67X"]}]}, {"stopid": "2214", "displaystopid": "2214", "shortname": "Lucan Road", "shortnamelocalized": "B\u00c3\u00b3thar Leamhc\u00c3\u00a1in", "fullname": "Lucan Road", "fullnamelocalized": "", "latitude": "53.3560888889", "longitude": "-6.3999180556", "operators": [{"name": "bac", "operatortype": 1, "routes": ["67X"]}]}, {"stopid": "2215", "displaystopid": "2215", "shortname": "Lucan Road", "shortnamelocalized": "B\u00c3\u00b3thar Leamhc\u00c3\u00a1in", "fullname": "Lucan Road", "fullnamelocalized": "", "latitude": "53.3583030556", "longitude": "-6.4092769444", "operators": [{"name": "bac", "operatortype": 1, "routes": ["67X"]}]}, {"stopid": "2637", "displaystopid": "2637", "shortname": "St. John's Road", "shortnamelocalized": "B\u00c3\u00b3thar Eoin", "fullname": "St. John's Road", "fullnamelocalized": "", "latitude": "53.3458861111", "longitude": "-6.2938380556", "operators": [{"name": "bac", "operatortype": 1, "routes": ["67X"]}]}, {"stopid": "312", "displaystopid": "312", "shortname": "Wellington Quay", "shortnamelocalized": "C\u00c3\u00a9 Wellington", "fullname": "Wellington Quay", "fullnamelocalized": "", "latitude": "53.34547", "longitude": "-6.2661919444", "operators": [{"name": "bac", "operatortype": 1, "routes": ["67X"]}]}, {"stopid": "345", "displaystopid": "345", "shortname": "Pearse Street", "shortnamelocalized": "Sr\u00c3\u00a1id an Phiarsaigh", "fullname": "Pearse Street", "fullnamelocalized": "", "latitude": "53.345485", "longitude": "-6.2562661111", "operators": [{"name": "bac", "operatortype": 1, "routes": ["67X"]}]}, {"stopid": "7050", "displaystopid": "7050", "shortname": "Lucan Bypass", "shortnamelocalized": "Seachr\u00c3\u00b3d Leamhc\u00c3\u00a1in", "fullname": "Lucan Bypass", "fullnamelocalized": "", "latitude": "53.3509430556", "longitude": "-6.4510980556", "operators": [{"name": "bac", "operatortype": 1, "routes": ["67X"]}]}, {"stopid": "768", "displaystopid": "768", "shortname": "Stillorgan Road", "shortnamelocalized": "B\u00c3\u00b3thar Stigh Lorgan", "fullname": "Stillorgan Road", "fullnamelocalized": "", "latitude": "53.3094661111", "longitude": "-6.21888", "operators": [{"name": "bac", "operatortype": 1, "routes": ["67X"]}]}, {"stopid": "769", "displaystopid": "769", "shortname": "Stillorgan Road", "shortnamelocalized": "B\u00c3\u00b3thar Stigh Lorgan", "fullname": "Stillorgan Road", "fullnamelocalized": "", "latitude": "53.3118938889", "longitude": "-6.2213169444", "operators": [{"name": "bac", "operatortype": 1, "routes": ["67X"]}]}, {"stopid": "770", "displaystopid": "770", "shortname": "Stillorgan Road", "shortnamelocalized": "B\u00c3\u00b3thar Stigh Lorgan", "fullname": "Stillorgan Road", "fullnamelocalized": "", "latitude": "53.314675", "longitude": "-6.2257830556", "operators": [{"name": "bac", "operatortype": 1, "routes": ["67X"]}]}, {"stopid": "771", "displaystopid": "771", "shortname": "Stillorgan Road", "shortnamelocalized": "B\u00c3\u00b3thar Stigh Lorgan", "fullname": "Stillorgan Road", "fullnamelocalized": "", "latitude": "53.3158769444", "longitude": "-6.2277630556", "operators": [{"name": "bac", "operatortype": 1, "routes": ["67X"]}]}, {"stopid": "772", "displaystopid": "772", "shortname": "Stillorgan Road", "shortnamelocalized": "B\u00c3\u00b3thar Stigh Lorgan", "fullname": "Stillorgan Road", "fullnamelocalized": "", "latitude": "53.3184980556", "longitude": "-6.231315", "operators": [{"name": "bac", "operatortype": 1, "routes": ["67X"]}]}, {"stopid": "773", "displaystopid": "773", "shortname": "Donnybrook Rd", "shortnamelocalized": "Br Dhomhnach Broc", "fullname": "Donnybrook Rd", "fullnamelocalized": "", "latitude": "53.3199119444", "longitude": "-6.2332569444", "operators": [{"name": "bac", "operatortype": 1, "routes": ["67X"]}]}, {"stopid": "774", "displaystopid": "774", "shortname": "Donnybrook", "shortnamelocalized": "Domhnach Broc", "fullname": "Donnybrook", "fullnamelocalized": "", "latitude": "53.3216038889", "longitude": "-6.2354838889", "operators": [{"name": "bac", "operatortype": 1, "routes": ["67X"]}]}, {"stopid": "775", "displaystopid": "775", "shortname": "Morehampton Road", "shortnamelocalized": "B\u00c3\u00b3thar Morehampton", "fullname": "Morehampton Road", "fullnamelocalized": "", "latitude": "53.3234811111", "longitude": "-6.2390638889", "operators": [{"name": "bac", "operatortype": 1, "routes": ["67X"]}]}, {"stopid": "776", "displaystopid": "776", "shortname": "Morehampton Road", "shortnamelocalized": "B\u00c3\u00b3thar Morehampton", "fullname": "Morehampton Road", "fullnamelocalized": "", "latitude": "53.32549", "longitude": "-6.2418038889", "operators": [{"name": "bac", "operatortype": 1, "routes": ["67X"]}]}, {"stopid": "777", "displaystopid": "777", "shortname": "Morehampton Road", "shortnamelocalized": "B\u00c3\u00b3thar Morehampton", "fullname": "Morehampton Road", "fullnamelocalized": "", "latitude": "53.3269438889", "longitude": "-6.2436588889", "operators": [{"name": "bac", "operatortype": 1, "routes": ["67X"]}]}, {"stopid": "779", "displaystopid": "779", "shortname": "Waterloo Road", "shortnamelocalized": "B\u00c3\u00b3thar Waterloo", "fullname": "Waterloo Road", "fullnamelocalized": "", "latitude": "53.3286886111", "longitude": "-6.2454475", "operators": [{"name": "bac", "operatortype": 1, "routes": ["67X"]}]}, {"stopid": "2721", "displaystopid": "2721", "shortname": "Con Colbert Rd", "shortnamelocalized": "Br Choinn Colbaird", "fullname": "Con Colbert Rd", "fullnamelocalized": "", "latitude": "53.3432730556", "longitude": "-6.3104880556", "operators": [{"name": "bac", "operatortype": 1, "routes": ["67X"]}]}, {"stopid": "3008", "displaystopid": "3008", "shortname": "Celbridge Rd", "shortnamelocalized": "Br Chill Droichid", "fullname": "Celbridge Rd", "fullnamelocalized": "", "latitude": "53.3739969444", "longitude": "-6.5864711111", "operators": [{"name": "bac", "operatortype": 1, "routes": ["67X"]}]}, {"stopid": "3902", "displaystopid": "3902", "shortname": "Dublin Rd", "shortnamelocalized": "Br Chill Droichid", "fullname": "Dublin Rd", "fullnamelocalized": "", "latitude": "53.3418430556", "longitude": "-6.51901", "operators": [{"name": "bac", "operatortype": 1, "routes": ["67X"]}]}, {"stopid": "3904", "displaystopid": "3904", "shortname": "Dublin Rd", "shortnamelocalized": "Br Bhaile \u00c3\u0081tha Clia", "fullname": "Dublin Rd", "fullnamelocalized": "", "latitude": "53.3399319444", "longitude": "-6.5282380556", "operators": [{"name": "bac", "operatortype": 1, "routes": ["67X"]}]}, {"stopid": "3905", "displaystopid": "3905", "shortname": "Dublin Rd", "shortnamelocalized": "Br Bhaile \u00c3\u0081tha Clia", "fullname": "Dublin Rd", "fullnamelocalized": "", "latitude": "53.33789", "longitude": "-6.5378330556", "operators": [{"name": "bac", "operatortype": 1, "routes": ["67X"]}]}, {"stopid": "3906", "displaystopid": "3906", "shortname": "Celbridge Main St", "shortnamelocalized": "Sr Mh\u00c3\u00b3r Chill Droic", "fullname": "Celbridge Main St", "fullnamelocalized": "", "latitude": "53.3391561111", "longitude": "-6.5391438889", "operators": [{"name": "bac", "operatortype": 1, "routes": ["67X"]}]}, {"stopid": "3907", "displaystopid": "3907", "shortname": "Celbridge Main St", "shortnamelocalized": "Cill Droichid", "fullname": "Celbridge Main St", "fullnamelocalized": "", "latitude": "53.3408419444", "longitude": "-6.537615", "operators": [{"name": "bac", "operatortype": 1, "routes": ["67X"]}]}, {"stopid": "3909", "displaystopid": "3909", "shortname": "Maynooth Road", "shortnamelocalized": "B\u00c3\u00b3thar Mhaigh Nuad", "fullname": "Maynooth Road", "fullnamelocalized": "", "latitude": "53.3467861111", "longitude": "-6.5419088889", "operators": [{"name": "bac", "operatortype": 1, "routes": ["67X"]}]}, {"stopid": "3910", "displaystopid": "3910", "shortname": "Maynooth Road", "shortnamelocalized": "B\u00c3\u00b3thar Mhaigh Nuad", "fullname": "Maynooth Road", "fullnamelocalized": "", "latitude": "53.3522638889", "longitude": "-6.5468719444", "operators": [{"name": "bac", "operatortype": 1, "routes": ["67X"]}]}, {"stopid": "3911", "displaystopid": "3911", "shortname": "Maynooth Road", "shortnamelocalized": "B\u00c3\u00b3thar Mhaigh Nuad", "fullname": "Maynooth Road", "fullnamelocalized": "", "latitude": "53.3542688889", "longitude": "-6.5471261111", "operators": [{"name": "bac", "operatortype": 1, "routes": ["67X"]}]}, {"stopid": "3912", "displaystopid": "3912", "shortname": "Maynooth Road", "shortnamelocalized": "B\u00c3\u00b3thar Mhaigh Nuad", "fullname": "Maynooth Road", "fullnamelocalized": "", "latitude": "53.3590738889", "longitude": "-6.551695", "operators": [{"name": "bac", "operatortype": 1, "routes": ["67X"]}]}, {"stopid": "3913", "displaystopid": "3913", "shortname": "Maynooth Road", "shortnamelocalized": "B\u00c3\u00b3thar Mhaigh Nuad", "fullname": "Maynooth Road", "fullnamelocalized": "", "latitude": "53.3620988889", "longitude": "-6.5567061111", "operators": [{"name": "bac", "operatortype": 1, "routes": ["67X"]}]}, {"stopid": "3914", "displaystopid": "3914", "shortname": "Celbridge Rd", "shortnamelocalized": "Br Chill Droichid", "fullname": "Celbridge Rd", "fullnamelocalized": "", "latitude": "53.3670061111", "longitude": "-6.5670419444", "operators": [{"name": "bac", "operatortype": 1, "routes": ["67X"]}]}, {"stopid": "3925", "displaystopid": "3925", "shortname": "Celbridge Rd", "shortnamelocalized": "Br Chill Droichid", "fullname": "Celbridge Rd", "fullnamelocalized": "", "latitude": "53.3725769444", "longitude": "-6.5846180556", "operators": [{"name": "bac", "operatortype": 1, "routes": ["67X"]}]}, {"stopid": "3947", "displaystopid": "3947", "shortname": "Leixlip Rd", "shortnamelocalized": "Br L\u00c3\u00a9im an Bhrad\u00c3\u00a1in", "fullname": "Leixlip Rd", "fullnamelocalized": "", "latitude": "53.3581580556", "longitude": "-6.4732288889", "operators": [{"name": "bac", "operatortype": 1, "routes": ["67X"]}]}, {"stopid": "4952", "displaystopid": "4952", "shortname": "UCD", "shortnamelocalized": "UCD", "fullname": "UCD", "fullnamelocalized": "", "latitude": "53.3049488889", "longitude": "-6.2168269444", "operators": [{"name": "bac", "operatortype": 1, "routes": ["67X"]}]}, {"stopid": "5118", "displaystopid": "5118", "shortname": "Maynooth Road", "shortnamelocalized": "B\u00c3\u00b3thar Mhaigh Nuad", "fullname": "Maynooth Road", "fullnamelocalized": "", "latitude": "53.350515", "longitude": "-6.544955", "operators": [{"name": "bac", "operatortype": 1, "routes": ["67X"]}]}, {"stopid": "7184", "displaystopid": "7184", "shortname": "Lucan Bypass", "shortnamelocalized": "Seachr\u00c3\u00b3d Leamhc\u00c3\u00a1in", "fullname": "Lucan Bypass", "fullnamelocalized": "", "latitude": "53.352125", "longitude": "-6.4361519444", "operators": [{"name": "bac", "operatortype": 1, "routes": ["67X"]}]}, {"stopid": "7185", "displaystopid": "7185", "shortname": "Lucan Bypass", "shortnamelocalized": "Seachr\u00c3\u00b3d Leamhc\u00c3\u00a1in", "fullname": "Lucan Bypass", "fullnamelocalized": "", "latitude": "53.3547611111", "longitude": "-6.4609019444", "operators": [{"name": "bac", "operatortype": 1, "routes": ["67X"]}]}, {"stopid": "7186", "displaystopid": "7186", "shortname": "Leixlip Rd", "shortnamelocalized": "Br L\u00c3\u00a9im an Bhrad\u00c3\u00a1in", "fullname": "Leixlip Rd", "fullnamelocalized": "", "latitude": "53.3567230556", "longitude": "-6.465285", "operators": [{"name": "bac", "operatortype": 1, "routes": ["67X"]}]}, {"stopid": "7187", "displaystopid": "7187", "shortname": "Leixlip Rd", "shortnamelocalized": "Br L\u00c3\u00a9im an Bhrad\u00c3\u00a1in", "fullname": "Leixlip Rd", "fullnamelocalized": "", "latitude": "53.3575619444", "longitude": "-6.4676161111", "operators": [{"name": "bac", "operatortype": 1, "routes": ["67X"]}]}, {"stopid": "780", "displaystopid": "780", "shortname": "Waterloo Road", "shortnamelocalized": "B\u00c3\u00b3thar Waterloo", "fullname": "Waterloo Road", "fullnamelocalized": "", "latitude": "53.3310633333", "longitude": "-6.2443438889", "operators": [{"name": "bac", "operatortype": 1, "routes": ["67X"]}]}, {"stopid": "781", "displaystopid": "781", "shortname": "Waterloo Road", "shortnamelocalized": "B\u00c3\u00b3thar Waterloo", "fullname": "Waterloo Road", "fullnamelocalized": "", "latitude": "53.3326263889", "longitude": "-6.2436641667", "operators": [{"name": "bac", "operatortype": 1, "routes": ["67X"]}]}, {"stopid": "782", "displaystopid": "782", "shortname": "Baggot St", "shortnamelocalized": "Sr Bhag\u00c3\u00b3id", "fullname": "Baggot St", "fullnamelocalized": "", "latitude": "53.33358", "longitude": "-6.24458", "operators": [{"name": "bac", "operatortype": 1, "routes": ["67X"]}]}, {"stopid": "783", "displaystopid": "783", "shortname": "Baggot St", "shortnamelocalized": "Sr Bhag\u00c3\u00b3id", "fullname": "Baggot St", "fullnamelocalized": "", "latitude": "53.3353119444", "longitude": "-6.246965", "operators": [{"name": "bac", "operatortype": 1, "routes": ["67X"]}]}, {"stopid": "784", "displaystopid": "784", "shortname": "Baggot St", "shortnamelocalized": "Sr Bhag\u00c3\u00b3id", "fullname": "Baggot St", "fullnamelocalized": "", "latitude": "53.3364138889", "longitude": "-6.2486180556", "operators": [{"name": "bac", "operatortype": 1, "routes": ["67X"]}]}, {"stopid": "785", "displaystopid": "785", "shortname": "Pembroke St", "shortnamelocalized": "Sr Pheambr\u00c3\u00b3g", "fullname": "Pembroke St", "fullnamelocalized": "", "latitude": "53.3370969444", "longitude": "-6.2517338889", "operators": [{"name": "bac", "operatortype": 1, "routes": ["67X"]}]},