{"errorcode": "0", "errormessage": "", "numberofresults": 4, "route": "69x", "timestamp": "07/07/2020 16:12:26", "results": [{"operator": "bac", "origin": "Hawkins St", "originlocalized": "Sr\u00e1id Hawkins", "destination": "Rathcoole", "destinationlocalized": "R\u00e1th C\u00fail", "lastupdated": "27/06/2016 09:01:42", "stops": [{"stopid": "1956", "displaystopid": "1956", "shortname": "Naas Road", "shortnamelocalized": "B\u00c3\u00b3thar an N\u00c3\u00a1is", "fullname": "Naas Road", "fullnamelocalized": "", "latitude": "53.3263561111", "longitude": "-6.343845", "operators": [{"name": "bac", "operatortype": 1, "routes": ["69X"]}]}, {"stopid": "337", "displaystopid": "337", "shortname": "Fleet Street", "shortnamelocalized": "Sr\u00e1id na Toinne", "fullname": "Fleet Street", "fullnamelocalized": "", "latitude": "53.34593889", "longitude": "-6.257805", "operators": [{"name": "bac", "operatortype": 1, "routes": ["69X"]}]}, {"stopid": "339", "displaystopid": "339", "shortname": "Burgh Quay", "shortnamelocalized": "C\u00e9 an Bh\u00farcaigh", "fullname": "Burgh Quay", "fullnamelocalized": "", "latitude": "53.34731306", "longitude": "-6.256928056", "operators": [{"name": "bac", "operatortype": 1, "routes": ["69X"]}]}, {"stopid": "3427", "displaystopid": "3427", "shortname": "Naas Road", "shortnamelocalized": "B\u00c3\u00b3thar an N\u00c3\u00a1is", "fullname": "Naas Road", "fullnamelocalized": "", "latitude": "53.3125169444", "longitude": "-6.3918580556", "operators": [{"name": "bac", "operatortype": 1, "routes": ["69X"]}]}, {"stopid": "3428", "displaystopid": "3428", "shortname": "Naas Road", "shortnamelocalized": "B\u00c3\u00b3thar an N\u00c3\u00a1is", "fullname": "Naas Road", "fullnamelocalized": "", "latitude": "53.3112611111", "longitude": "-6.3987288889", "operators": [{"name": "bac", "operatortype": 1, "routes": ["69X"]}]}, {"stopid": "3429", "displaystopid": "3429", "shortname": "Naas Road", "shortnamelocalized": "B\u00f3thar an N\u00e1is", "fullname": "Naas Road", "fullnamelocalized": "", "latitude": "53.30665", "longitude": "-6.406741944", "operators": [{"name": "bac", "operatortype": 1, "routes": ["69X"]}]}, {"stopid": "3432", "displaystopid": "3432", "shortname": "Bianconi Avenue", "shortnamelocalized": "Ascaill Bianconi", "fullname": "Bianconi Avenue", "fullnamelocalized": "", "latitude": "53.2913338889", "longitude": "-6.4282019444", "operators": [{"name": "bac", "operatortype": 1, "routes": ["69X"]}]}, {"stopid": "3434", "displaystopid": "3434", "shortname": "Saggart Village", "shortnamelocalized": "SrBhl Theach Sagard", "fullname": "Saggart Village", "fullnamelocalized": "", "latitude": "53.2803111111", "longitude": "-6.44468", "operators": [{"name": "bac", "operatortype": 1, "routes": ["69X"]}]}, {"stopid": "3435", "displaystopid": "3435", "shortname": "Mill Road", "shortnamelocalized": "B\u00c3\u00b3thar an Mhuilinn", "fullname": "Mill Road", "fullnamelocalized": "", "latitude": "53.2816580556", "longitude": "-6.4480580556", "operators": [{"name": "bac", "operatortype": 1, "routes": ["69X"]}]}, {"stopid": "3437", "displaystopid": "3437", "shortname": "Fitzmaurice Road", "shortnamelocalized": "B\u00c3\u00b3thar Mhic Mhuiris", "fullname": "Fitzmaurice Road", "fullnamelocalized": "", "latitude": "53.2835819444", "longitude": "-6.4605080556", "operators": [{"name": "bac", "operatortype": 1, "routes": ["69X"]}]}, {"stopid": "3440", "displaystopid": "3440", "shortname": "Rathcoole", "shortnamelocalized": "R\u00c3\u00a1th C\u00c3\u00bail", "fullname": "Rathcoole", "fullnamelocalized": "", "latitude": "53.2818161111", "longitude": "-6.4654969444", "operators": [{"name": "bac", "operatortype": 1, "routes": ["69X"]}]}, {"stopid": "3441", "displaystopid": "3441", "shortname": "Rathcoole", "shortnamelocalized": "R\u00c3\u00a1th C\u00c3\u00bail", "fullname": "Rathcoole", "fullnamelocalized": "", "latitude": "53.2811788889", "longitude": "-6.4728361111", "operators": [{"name": "bac", "operatortype": 1, "routes": ["69X"]}]}, {"stopid": "3453", "displaystopid": "3453", "shortname": "Mill Road", "shortnamelocalized": "B\u00c3\u00b3thar an Mhuilinn", "fullname": "Mill Road", "fullnamelocalized": "", "latitude": "53.2829511111", "longitude": "-6.4528", "operators": [{"name": "bac", "operatortype": 1, "routes": ["69X"]}]}, {"stopid": "4720", "displaystopid": "4720", "shortname": "Aston Quay", "shortnamelocalized": "C\u00c3\u00a9 Aston", "fullname": "Aston Quay", "fullnamelocalized": "", "latitude": "53.346615", "longitude": "-6.260275", "operators": [{"name": "bac", "operatortype": 1, "routes": ["69X"]}]}, {"stopid": "2109", "displaystopid": "2109", "shortname": "Naas Road", "shortnamelocalized": "B\u00c3\u00b3thar an N\u00c3\u00a1is", "fullname": "Naas Road", "fullnamelocalized": "", "latitude": "53.3150038889", "longitude": "-6.3816338889", "operators": [{"name": "bac", "operatortype": 1, "routes": ["69X"]}]}, {"stopid": "2637", "displaystopid": "2637", "shortname": "St. John's Road", "shortnamelocalized": "B\u00c3\u00b3thar Eoin", "fullname": "St. John's Road", "fullnamelocalized": "", "latitude": "53.3458861111", "longitude": "-6.2938380556", "operators": [{"name": "bac", "operatortype": 1, "routes": ["69X"]}]}, {"stopid": "4560", "displaystopid": "4560", "shortname": "Johnstown Rd", "shortnamelocalized": "Br Bhaile She\u00c3\u00a1in", "fullname": "Johnstown Rd", "fullnamelocalized": "", "latitude": "53.2794880556", "longitude": "-6.4775080556", "operators": [{"name": "bac", "operatortype": 1, "routes": ["69X"]}]}, {"stopid": "1443", "displaystopid": "1443", "shortname": "Essex Quay", "shortnamelocalized": "C\u00c3\u00a9 Essex", "fullname": "Essex Quay", "fullnamelocalized": "", "latitude": "53.345125", "longitude": "-6.2695280556", "operators": [{"name": "bac", "operatortype": 1, "routes": ["69X"]}]}, {"stopid": "1444", "displaystopid": "1444", "shortname": "Merchant's Quay", "shortnamelocalized": "C\u00c3\u00a9 na gCeannaithe", "fullname": "Merchant's Quay", "fullnamelocalized": "", "latitude": "53.3451188889", "longitude": "-6.2737388889", "operators": [{"name": "bac", "operatortype": 1, "routes": ["69X"]}]}, {"stopid": "1445", "displaystopid": "1445", "shortname": "Ushers Quay", "shortnamelocalized": "C\u00c3\u00a9 Uis\u00c3\u00a9ir", "fullname": "Ushers Quay", "fullnamelocalized": "", "latitude": "53.345675", "longitude": "-6.2782838889", "operators": [{"name": "bac", "operatortype": 1, "routes": ["69X"]}]}, {"stopid": "1447", "displaystopid": "1447", "shortname": "Victoria Quay", "shortnamelocalized": "C\u00c3\u00a9 Victoria", "fullname": "Victoria Quay", "fullnamelocalized": "", "latitude": "53.3466280556", "longitude": "-6.2881669444", "operators": [{"name": "bac", "operatortype": 1, "routes": ["69X"]}]}, {"stopid": "5126", "displaystopid": "5126", "shortname": "Rathlawns", "shortnamelocalized": "Pl\u00c3\u00a1s\u00c3\u00b3ga an R\u00c3\u00a1tha", "fullname": "Rathlawns", "fullnamelocalized": "", "latitude": "53.2773338889", "longitude": "-6.4800138889", "operators": [{"name": "bac", "operatortype": 1, "routes": ["69X"]}]}]}, {"operator": "bac", "origin": "Hawkins Street", "originlocalized": "Sr\u00e1id Hawkins ", "destination": "Rathlawns ", "destinationlocalized": "Rathlawns ", "lastupdated": "29/06/2020 07:44:07", "stops": [{"stopid": "4495", "displaystopid": "4495", "shortname": "Hawkins Street", "shortnamelocalized": "Sr\u00c3\u00a1id Hawkins", "fullname": "Hawkins Street", "fullnamelocalized": "", "latitude": "53.3461830556", "longitude": "-6.2569661111", "operators": [{"name": "bac", "operatortype": 1, "routes": ["69X"]}]}, {"stopid": "4720", "displaystopid": "4720", "shortname": "Aston Quay", "shortnamelocalized": "C\u00c3\u00a9 Aston", "fullname": "Aston Quay", "fullnamelocalized": "", "latitude": "53.346615", "longitude": "-6.260275", "operators": [{"name": "bac", "operatortype": 1, "routes": ["69X"]}]}, {"stopid": "1443", "displaystopid": "1443", "shortname": "Essex Quay", "shortnamelocalized": "C\u00c3\u00a9 Essex", "fullname": "Essex Quay", "fullnamelocalized": "", "latitude": "53.345125", "longitude": "-6.2695280556", "operators": [{"name": "bac", "operatortype": 1, "routes": ["69X"]}]}, {"stopid": "1444", "displaystopid": "1444", "shortname": "Merchant's Quay", "shortnamelocalized": "C\u00c3\u00a9 na gCeannaithe", "fullname": "Merchant's Quay", "fullnamelocalized": "", "latitude": "53.3451188889", "longitude": "-6.2737388889", "operators": [{"name": "bac", "operatortype": 1, "routes": ["69X"]}]}, {"stopid": "1445", "displaystopid": "1445", "shortname": "Ushers Quay", "shortnamelocalized": "C\u00c3\u00a9 Uis\u00c3\u00a9ir", "fullname": "Ushers Quay", "fullnamelocalized": "", "latitude": "53.345675", "longitude": "-6.2782838889", "operators": [{"name": "bac", "operatortype": 1, "routes": ["69X"]}]}, {"stopid": "1447", "displaystopid": "1447", "shortname": "Victoria Quay", "shortnamelocalized": "C\u00c3\u00a9 Victoria", "fullname": "Victoria Quay", "fullnamelocalized": "", "latitude": "53.3466280556", "longitude": "-6.2881669444", "operators": [{"name": "bac", "operatortype": 1, "routes": ["69X"]}]}, {"stopid": "2637", "displaystopid": "2637", "shortname": "St. John's Road", "shortnamelocalized": "B\u00c3\u00b3thar Eoin", "fullname": "St. John's Road", "fullnamelocalized": "", "latitude": "53.3458861111", "longitude": "-6.2938380556", "operators": [{"name": "bac", "operatortype": 1, "routes": ["69X"]}]}, {"stopid": "1956", "displaystopid": "1956", "shortname": "Naas Road", "shortnamelocalized": "B\u00c3\u00b3thar an N\u00c3\u00a1is", "fullname": "Naas Road", "fullnamelocalized": "", "latitude": "53.3263561111", "longitude": "-6.343845", "operators": [{"name": "bac", "operatortype": 1, "routes": ["69X"]}]}, {"stopid": "2109", "displaystopid": "2109", "shortname": "Naas Road", "shortnamelocalized": "B\u00c3\u00b3thar an N\u00c3\u00a1is", "fullname": "Naas Road", "fullnamelocalized": "", "latitude": "53.3150038889", "longitude": "-6.3816338889", "operators": [{"name": "bac", "operatortype": 1, "routes": ["69X"]}]}, {"stopid": "3427", "displaystopid": "3427", "shortname": "Naas Road", "shortnamelocalized": "B\u00c3\u00b3thar an N\u00c3\u00a1is", "fullname": "Naas Road", "fullnamelocalized": "", "latitude": "53.3125169444", "longitude": "-6.3918580556", "operators": [{"name": "bac", "operatortype": 1, "routes": ["69X"]}]}, {"stopid": "3428", "displaystopid": "3428", "shortname": "Naas Road", "shortnamelocalized": "B\u00c3\u00b3thar an N\u00c3\u00a1is", "fullname": "Naas Road", "fullnamelocalized": "", "latitude": "53.3112611111", "longitude": "-6.3987288889", "operators": [{"name": "bac", "operatortype": 1, "routes": ["69X"]}]}, {"stopid": "3432", "displaystopid": "3432", "shortname": "Bianconi Avenue", "shortnamelocalized": "Ascaill Bianconi", "fullname": "Bianconi Avenue", "fullnamelocalized": "", "latitude": "53.2913338889", "longitude": "-6.4282019444", "operators": [{"name": "bac", "operatortype": 1, "routes": ["69X"]}]}, {"stopid": "3434", "displaystopid": "3434", "shortname": "Saggart Village", "shortnamelocalized": "SrBhl Theach Sagard", "fullname": "Saggart Village", "fullnamelocalized": "", "latitude": "53.2803111111", "longitude": "-6.44468", "operators": [{"name": "bac", "operatortype": 1, "routes": ["69X"]}]}, {"stopid": "3453", "displaystopid": "3453", "shortname": "Mill Road", "shortnamelocalized": "B\u00c3\u00b3thar an Mhuilinn", "fullname": "Mill Road", "fullnamelocalized": "", "latitude": "53.2829511111", "longitude": "-6.4528", "operators": [{"name": "bac", "operatortype": 1, "routes": ["69X"]}]}, {"stopid": "3437", "displaystopid": "3437", "shortname": "Fitzmaurice Road", "shortnamelocalized": "B\u00c3\u00b3thar Mhic Mhuiris", "fullname": "Fitzmaurice Road", "fullnamelocalized": "", "latitude": "53.2835819444", "longitude": "-6.4605080556", "operators": [{"name": "bac", "operatortype": 1, "routes": ["69X"]}]}, {"stopid": "3440", "displaystopid": "3440", "shortname": "Rathcoole", "shortnamelocalized": "R\u00c3\u00a1th C\u00c3\u00bail", "fullname": "Rathcoole", "fullnamelocalized": "", "latitude": "53.2818161111", "longitude": "-6.4654969444", "operators": [{"name": "bac", "operatortype": 1, "routes": ["69X"]}]}, {"stopid": "3441", "displaystopid": "3441", "shortname": "Rathcoole", "shortnamelocalized": "R\u00c3\u00a1th C\u00c3\u00bail", "fullname": "Rathcoole", "fullnamelocalized": "", "latitude": "53.2811788889", "longitude": "-6.4728361111", "operators": [{"name": "bac", "operatortype": 1, "routes": ["69X"]}]}, {"stopid": "4560", "displaystopid": "4560", "shortname": "Johnstown Rd", "shortnamelocalized": "Br Bhaile She\u00c3\u00a1in", "fullname": "Johnstown Rd", "fullnamelocalized": "", "latitude": "53.2794880556", "longitude": "-6.4775080556", "operators": [{"name": "bac", "operatortype": 1, "routes": ["69X"]}]}, {"stopid": "5126", "displaystopid": "5126", "shortname": "Rathlawns", "shortnamelocalized": "Pl\u00c3\u00a1s\u00c3\u00b3ga an R\u00c3\u00a1tha", "fullname": "Rathlawns", "fullnamelocalized": "", "latitude": "53.2773338889", "longitude": "-6.4800138889", "operators": [{"name": "bac", "operatortype": 1, "routes": ["69X"]}]}]}, {"operator": "bac", "origin": "Rathcoole", "originlocalized": "R\u00e1th C\u00fail", "destination": "Hawkins St", "destinationlocalized": "Sr\u00e1id Hawkins", "lastupdated": "27/06/2016 09:01:43", "stops": [{"stopid": "4537", "displaystopid": "4537", "shortname": "Hazelwood Est", "shortnamelocalized": "East\u00c3\u00a1t na Collchoil", "fullname": "Hazelwood Est", "fullnamelocalized": "", "latitude": "53.31087", "longitude": "-6.4019569444", "operators": [{"name": "bac", "operatortype": 1, "routes": ["69X"]}]}, {"stopid": "4564", "displaystopid": "4564", "shortname": "Rathlawns ", "shortnamelocalized": "Pl\u00c3\u00a1s\u00c3\u00b3ga an R\u00c3\u00a1tha", "fullname": "Rathlawns", "fullnamelocalized": "", "latitude": "53.2780211111", "longitude": "-6.4792069444", "operators": [{"name": "bac", "operatortype": 1, "routes": ["69X"]}]}, {"stopid": "5022", "displaystopid": "5022", "shortname": "Kingswood Ave", "shortnamelocalized": "Ascl Choill an R\u00c3\u00ad", "fullname": "Kingswood Ave", "fullnamelocalized": "", "latitude": "53.2933805556", "longitude": "-6.4228291667", "operators": [{"name": "bac", "operatortype": 1, "routes": ["69X"]}]}, {"stopid": "1982", "displaystopid": "1982", "shortname": "Naas Road", "shortnamelocalized": "B\u00c3\u00b3thar an N\u00c3\u00a1is", "fullname": "Naas Road", "fullnamelocalized": "", "latitude": "53.3271811111", "longitude": "-6.3420261111", "operators": [{"name": "bac", "operatortype": 1, "routes": ["69X"]}]}, {"stopid": "3444", "displaystopid": "3444", "shortname": "Rathcoole", "shortnamelocalized": "R\u00c3\u00a1th C\u00c3\u00bail", "fullname": "Rathcoole", "fullnamelocalized": "", "latitude": "53.2811819444", "longitude": "-6.4747680556", "operators": [{"name": "bac", "operatortype": 1, "routes": ["69X"]}]}, {"stopid": "3447", "displaystopid": "3447", "shortname": "Rathcoole", "shortnamelocalized": "R\u00c3\u00a1th C\u00c3\u00bail", "fullname": "Rathcoole", "fullnamelocalized": "", "latitude": "53.2819119444", "longitude": "-6.4652461111", "operators": [{"name": "bac", "operatortype": 1, "routes": ["69X"]}]}, {"stopid": "3454", "displaystopid": "3454", "shortname": "Mill Road", "shortnamelocalized": "B\u00c3\u00b3thar an Mhuilinn", "fullname": "Mill Road", "fullnamelocalized": "", "latitude": "53.281645", "longitude": "-6.4476688889", "operators": [{"name": "bac", "operatortype": 1, "routes": ["69X"]}]}, {"stopid": "3455", "displaystopid": "3455", "shortname": "Saggart Village", "shortnamelocalized": "Sr\u00c3\u00a1idbhaile Theach ", "fullname": "Saggart Village", "fullnamelocalized": "", "latitude": "53.2803419444", "longitude": "-6.4448038889", "operators": [{"name": "bac", "operatortype": 1, "routes": ["69X"]}]}, {"stopid": "3461", "displaystopid": "3461", "shortname": "Boot Road", "shortnamelocalized": "B\u00c3\u00b3thar an Bh\u00c3\u00bataigh", "fullname": "Boot Road", "fullnamelocalized": "", "latitude": "53.3096388889", "longitude": "-6.4044211111", "operators": [{"name": "bac", "operatortype": 1, "routes": ["69X"]}]}, {"stopid": "5192", "displaystopid": "5192", "shortname": "Fleet Street", "shortnamelocalized": "Sr\u00c3\u00a1id na Toinne", "fullname": "Fleet Street", "fullnamelocalized": "", "latitude": "53.3459388889", "longitude": "-6.257805", "operators": [{"name": "bac", "operatortype": 1, "routes": ["69X"]}]}, {"stopid": "339", "displaystopid": "339", "shortname": "Burgh Quay", "shortnamelocalized": "C\u00e9 an Bh\u00farcaigh", "fullname": "Burgh Quay", "fullnamelocalized": "", "latitude": "53.34731306", "longitude": "-6.256928056", "operators": [{"name": "bac", "operatortype": 1, "routes": ["69X"]}]}, {"stopid": "4413", "displaystopid": "4413", "shortname": "St. John's Road", "shortnamelocalized": "B\u00c3\u00b3thar Eoin", "fullname": "St. John's Road", "fullnamelocalized": "", "latitude": "53.3461619444", "longitude": "-6.2926988889", "operators": [{"name": "bac", "operatortype": 1, "routes": ["69X"]}]}, {"stopid": "1358", "displaystopid": "1358", "shortname": "Dame Street", "shortnamelocalized": "Sr\u00c3\u00a1id an D\u00c3\u00a1ma", "fullname": "Dame Street", "fullnamelocalized": "", "latitude": "53.3443061111", "longitude": "-6.2628611111", "operators": [{"name": "bac", "operatortype": 1, "routes": ["69X"]}]}, {"stopid": "1480", "displaystopid": "1480", "shortname": "Ormond Quay", "shortnamelocalized": "C\u00c3\u00a9 Urumhan", "fullname": "Ormond Quay", "fullnamelocalized": "", "latitude": "53.3456938889", "longitude": "-6.2706169444", "operators": [{"name": "bac", "operatortype": 1, "routes": ["69X"]}]}, {"stopid": "2176", "displaystopid": "2176", "shortname": "Naas Road", "shortnamelocalized": "B\u00c3\u00b3thar an N\u00c3\u00a1is", "fullname": "Naas Road", "fullnamelocalized": "", "latitude": "53.3138588889", "longitude": "-6.3876461111", "operators": [{"name": "bac", "operatortype": 1, "routes": ["69X"]}]}, {"stopid": "7435", "displaystopid": "7435", "shortname": "Con Colbert Rd", "shortnamelocalized": "Br Choinn Colbaird", "fullname": "Con Colbert Rd", "fullnamelocalized": "", "latitude": "53.3431811111", "longitude": "-6.315365", "operators": [{"name": "bac", "operatortype": 1, "routes": ["69X"]}]}]}, {"operator": "bac", "origin": "Rathlawns ", "originlocalized": "Rathlawns ", "destination": "Poolbeg Street", "destinationlocalized": "Poolbeg Street", "lastupdated": "29/06/2020 07:44:08", "stops": [{"stopid": "4564", "displaystopid": "4564", "shortname": "Rathlawns ", "shortnamelocalized": "Pl\u00c3\u00a1s\u00c3\u00b3ga an R\u00c3\u00a1tha", "fullname": "Rathlawns", "fullnamelocalized": "", "latitude": "53.2780211111", "longitude": "-6.4792069444", "operators": [{"name": "bac", "operatortype": 1, "routes": ["69X"]}]}, {"stopid": "3444", "displaystopid": "3444", "shortname": "Rathcoole", "shortnamelocalized": "R\u00c3\u00a1th C\u00c3\u00bail", "fullname": "Rathcoole", "fullnamelocalized": "", "latitude": "53.2811819444", "longitude": "-6.4747680556", "operators": [{"name": "bac", "operatortype": 1, "routes": ["69X"]}]}, {"stopid": "3447", "displaystopid": "3447", "shortname": "Rathcoole", "shortnamelocalized": "R\u00c3\u00a1th C\u00c3\u00bail", "fullname": "Rathcoole", "fullnamelocalized": "", "latitude": "53.2819119444", "longitude": "-6.4652461111", "operators": [{"name": "bac", "operatortype": 1, "routes": ["69X"]}]}, {"stopid": "3454", "displaystopid": "3454", "shortname": "Mill Road", "shortnamelocalized": "B\u00c3\u00b3thar an Mhuilinn", "fullname": "Mill Road", "fullnamelocalized": "", "latitude": "53.281645", "longitude": "-6.4476688889", "operators": [{"name": "bac", "operatortype": 1, "routes": ["69X"]}]}, {"stopid": "3455", "displaystopid": "3455", "shortname": "Saggart Village", "shortnamelocalized": "Sr\u00c3\u00a1idbhaile Theach ", "fullname": "Saggart Village", "fullnamelocalized": "", "latitude": "53.2803419444", "longitude": "-6.4448038889", "operators": [{"name": "bac", "operatortype": 1, "routes": ["69X"]}]}, {"stopid": "5022", "displaystopid": "5022", "shortname": "Kingswood Ave", "shortnamelocalized": "Ascl Choill an R\u00c3\u00ad", "fullname": "Kingswood Ave", "fullnamelocalized": "", "latitude": "53.2933805556", "longitude": "-6.4228291667", "operators": [{"name": "bac", "operatortype": 1, "routes": ["69X"]}]}, {"stopid": "3461", "displaystopid": "3461", "shortname": "Boot Road", "shortnamelocalized": "B\u00c3\u00b3thar an Bh\u00c3\u00bataigh", "fullname": "Boot Road", "fullnamelocalized": "", "latitude": "53.3096388889", "longitude": "-6.4044211111", "operators": [{"name": "bac", "operatortype": 1, "routes": ["69X"]}]}, {"stopid": "4537", "displaystopid": "4537", "shortname": "Hazelwood Est", "shortnamelocalized": "East\u00c3\u00a1t na Collchoil", "fullname": "Hazelwood Est", "fullnamelocalized": "", "latitude": "53.31087", "longitude": "-6.4019569444", "operators": [{"name": "bac", "operatortype": 1, "routes": ["69X"]}]}, {"stopid": "2176", "displaystopid": "2176", "shortname": "Naas Road", "shortnamelocalized": "B\u00c3\u00b3thar an N\u00c3\u00a1is", "fullname": "Naas Road", "fullnamelocalized": "", "latitude": "53.3138588889", "longitude": "-6.3876461111", "operators": [{"name": "bac", "operatortype": 1, "routes": ["69X"]}]}, {"stopid": "1982", "displaystopid": "1982", "shortname": "Naas Road", "shortnamelocalized": "B\u00c3\u00b3thar an N\u00c3\u00a1is", "fullname": "Naas Road", "fullnamelocalized": "", "latitude": "53.3271811111", "longitude": "-6.3420261111", "operators": [{"name": "bac", "operatortype": 1, "routes": ["69X"]}]}, {"stopid": "7435", "displaystopid": "7435", "shortname": "Con Colbert Rd", "shortnamelocalized": "Br Choinn Colbaird", "fullname": "Con Colbert Rd", "fullnamelocalized": "", "latitude": "53.3431811111", "longitude": "-6.315365", "operators": [{"name": "bac", "operatortype": 1, "routes": ["69X"]}]}, {"stopid": "4413", "displaystopid": "4413", "shortname": "St. John's Road", "shortnamelocalized": "B\u00c3\u00b3thar Eoin", "fullname": "St. John's Road", "fullnamelocalized": "", "latitude": "53.3461619444", "longitude": "-6.2926988889", "operators": [{"name": "bac", "operatortype": 1, "routes": ["69X"]}]}, {"stopid": "1480", "displaystopid": "1480", "shortname": "Ormond Quay", "shortnamelocalized": "C\u00c3\u00a9 Urumhan", "fullname": "Ormond Quay", "fullnamelocalized": "", "latitude": "53.3456938889", "longitude": "-6.2706169444", "operators": [{"name": "bac", "operatortype": 1, "routes": ["69X"]}]}, {"stopid": "1358", "displaystopid": "1358", "shortname": "Dame Street", "shortnamelocalized": "Sr\u00c3\u00a1id an D\u00c3\u00a1ma", "fullname": "Dame Street", "fullnamelocalized": "", "latitude": "53.3443061111", "longitude": "-6.2628611111", "operators": [{"name": "bac", "operatortype": 1, "routes": ["69X"]}]}, {"stopid": "7665", "displaystopid": "7665", "shortname": "Poolbeg Street", "shortnamelocalized": "", "fullname": "Poolbeg Street", "fullnamelocalized": "", "latitude": "53.3468230556", "longitude": "-6.2567738889", "operators": [{"name": "bac", "operatortype": 1, "routes": ["69X"]}]}]}]}